place_id,name,type,lat,lng,rating,user_ratings_total,price_level,vicinity,types,business_status,city,collected_at
ChIJoe04rqTEhkcRcIdpU-TIkgc,Banco BPM,bank,45.39208170000001,9.174737700000001,2.0,8.0,,"Via Eugenio Curiel, 25, Rozzano","bank,atm,finance,point_of_interest,establishment",OPERATIONAL,milan,2026-02-06T15:15:36.263978
ChIJkRBTvaXEhkcRKA0Dew9xZJ0,Cassa Rurale ed Artigiana Di Binasco - Credito Cooperativo,bank,45.39481679999999,9.1687654,4.0,4.0,,"Piazza Fontana, 20, Rozzano","bank,atm,finance,point_of_interest,establishment",OPERATIONAL,milan,2026-02-06T15:15:36.264004
ChIJ3wz9HJvEhkcR6VfILmM3Byw,Intesa Sanpaolo S.p.A.,bank,45.4101173,9.1751044,2.0,62.0,,"Via dei Missaglia, 97, Milano","bank,atm,finance,point_of_interest,establishment",OPERATIONAL,milan,2026-02-06T15:15:38.802298
ChIJqwNj_4bEhkcRmGzUc21rATk,Crédit Agricole Italia,bank,45.4187009,9.176482499999999,2.9,24.0,,"Via Corradino D'Ascanio, 4, Milano","bank,atm,insurance_agency,finance,health,point_of_interest,establishment",OPERATIONAL,milan,2026-02-06T15:15:42.260649
ChIJgTJJ4obEhkcRNgVfT8GmoA4,UniCredit,bank,45.41850300000001,9.1766145,3.3,27.0,,"Via Corradino D'Ascanio, 4, Milano","bank,finance,point_of_interest,establishment",OPERATIONAL,milan,2026-02-06T15:15:42.260693
ChIJozjjcXPFhkcRfzyTuPiy65Y,Banco BPM,bank,45.4182864,9.1800545,3.1,8.0,,"Via Nicola Romeo, 14, Milano","bank,atm,finance,point_of_interest,establishment",OPERATIONAL,milan,2026-02-06T15:15:42.260703
ChIJP-qnBFvEhkcRgr7LEpqB3sA,"BANCO DESIO – Filiale di Milano, via Ripamonti 265 ang. via Federico Chopin 111",bank,45.42515,9.204021899999997,3.5,6.0,,"Via Ripamonti, Via Federico Chopin, 265, Milano","bank,finance,point_of_interest,establishment",OPERATIONAL,milan,2026-02-06T15:15:44.760359
ChIJZVhqLSzFhkcRRUS8V2Zd_qw,Banco BPM,bank,45.43001539999999,9.2036288,5.0,1.0,,"Via Val di Sole, 22, Milano","bank,atm,finance,point_of_interest,establishment",OPERATIONAL,milan,2026-02-06T15:15:46.920426
ChIJMf1T4UPEhkcR8ZXTt-0CSD8,Credem Banca,bank,45.4330288,9.201643700000002,2.9,22.0,,"Via Giuseppe Ripamonti, 189, Milano","bank,atm,finance,point_of_interest,establishment",OPERATIONAL,milan,2026-02-06T15:15:49.527815
ChIJCbsSE0HEhkcRSV9A3NX2LcY,Crédit Agricole Italia,bank,45.434576,9.201251,3.0,8.0,,"Via Giuseppe Ripamonti, 177, Milano","bank,atm,insurance_agency,finance,health,point_of_interest,establishment",OPERATIONAL,milan,2026-02-06T15:15:49.527861
ChIJYw6JCEHEhkcRpffbgdqi36Y,Intesa Sanpaolo S.p.A.,bank,45.4349339,9.200655,1.5,64.0,,"Via Giuseppe Ripamonti, 166, Milano","bank,atm,finance,point_of_interest,establishment",OPERATIONAL,milan,2026-02-06T15:15:49.527878
ChIJV7en_r3DhkcR6A6BQpUlAAA,Banca Popolare di Sondrio SpA,bank,45.4373411,9.1511502,4.3,23.0,,"Viale Faenza, 22, Milano","bank,finance,point_of_interest,establishment",OPERATIONAL,milan,2026-02-06T15:15:51.076814
ChIJPVgvytrDhkcRbBuue-iyyYc,Banco BPM,bank,45.43874220000001,9.1522989,2.0,30.0,,"Via Capo Palinuro, 2, Milano","bank,atm,finance,point_of_interest,establishment",OPERATIONAL,milan,2026-02-06T15:15:51.076851
ChIJ0X37_HTEhkcRBPdFyZrpO9M,UniCredit,bank,45.4380432,9.1782064,2.8,113.0,,"VIA MEDA, Viale Giovanni da Cermenate, 60, Milano","bank,finance,point_of_interest,establishment",OPERATIONAL,milan,2026-02-06T15:15:52.203816
ChIJ0yP2sHXFhkcRFCIFZrhOseQ,Banco BPM,bank,45.4372812,9.1779349,2.4,22.0,,"Via Lodovico Montegani, 2, Milano","bank,atm,finance,point_of_interest,establishment",OPERATIONAL,milan,2026-02-06T15:15:52.203845
ChIJCxR7CwrEhkcRaElnkFbZ4n0,Crédit Agricole Italia,bank,45.4371145,9.1812585,3.9,54.0,,"Viale Giovanni da Cermenate, 44, Milano","bank,atm,insurance_agency,finance,point_of_interest,health,establishment",OPERATIONAL,milan,2026-02-06T15:15:52.350332
ChIJZ9jfWgnFhkcR9sEATFwfRm0,Deutsche Bank Easy,bank,45.4356252,9.1833921,4.5,2.0,,"Via Volvinio, 24, Milano","bank,insurance_agency,finance,point_of_interest,establishment",OPERATIONAL,milan,2026-02-06T15:15:52.350367
ChIJly5_5grEhkcRyPZ90fDDIq4,Intesa Sanpaolo S.p.A.,bank,45.43893159999999,9.178689599999998,2.1,126.0,,"Via Giuseppe Meda, 49, Milano","bank,atm,finance,point_of_interest,establishment",OPERATIONAL,milan,2026-02-06T15:15:52.350378
ChIJXxxgwj_EhkcR7_jd3CoEZho,Banco BPM,bank,45.4393277,9.1997469,2.5,16.0,,"Via Giuseppe Ripamonti, 114, Milano","bank,atm,finance,point_of_interest,establishment",OPERATIONAL,milan,2026-02-06T15:15:52.660964
ChIJ9fLhVGfFhkcRJyhAXoQcT_8,BANCA POPOLARE DI SONDRIO,bank,45.436753,9.215158200000001,2.7,10.0,,"Via Marco D'Agrate, 11, Milano","bank,finance,point_of_interest,establishment",OPERATIONAL,milan,2026-02-06T15:15:52.845434
ChIJV7dbrzXEhkcRE-bZH4yz9eE,M.C.B. Di Cavallini Marco & C. (S.A.S.),bank,45.438374,9.218405899999999,,,,"Via Mincio, 28, Milano","bank,finance,point_of_interest,establishment",OPERATIONAL,milan,2026-02-06T15:15:53.470803
ChIJb1n-08vFhkcRz0S_PYeLccc,Credit Du Maroc S.A.- Ufficio Di Rappresentanza,bank,45.4387015,9.2272223,,,,"Via Carlo Marochetti, 21, Milano","bank,atm,finance,point_of_interest,establishment",OPERATIONAL,milan,2026-02-06T15:15:53.585201
ChIJHTDphsjFhkcRbvQ7iWfNvW4,"BANCO DESIO – Filiale Milano Corvetto, via G.B. Cassinis 15",bank,45.4370225,9.2312395,3.6,7.0,,"Via Giovanni Battista Cassinis, 15, Milano","bank,finance,point_of_interest,establishment",OPERATIONAL,milan,2026-02-06T15:15:53.585231
ChIJOXbxsgvFhkcRJB9z0p5cjww,Banco BPM,bank,45.4357498,9.233997900000002,3.4,5.0,,"Via Giovanni Battista Cassinis, 33, Milano","bank,atm,finance,point_of_interest,establishment",OPERATIONAL,milan,2026-02-06T15:15:53.718666
ChIJgejpl7_DhkcR7Z6dsaVj7IU,Intesa Sanpaolo S.p.A.,bank,45.441019,9.151375600000001,2.2,92.0,,"Via Ettore Ponti, 55, Milano","bank,atm,finance,point_of_interest,establishment",OPERATIONAL,milan,2026-02-06T15:15:55.072725
ChIJA9nhy7_DhkcRN5UzPSuz3Jk,Fondo di Previdenza del Personale della Banca Nazionale del Lavoro,bank,45.44016480000001,9.1517481,,,,"Via Santa Rita da Cascia, 33, Milano","bank,finance,point_of_interest,establishment",OPERATIONAL,milan,2026-02-06T15:15:55.072739
ChIJ6YULnf7DhkcRxtVMC1hUsIU,UniCredit,bank,45.4435745,9.147684399999997,3.0,2.0,,"Viale Giulio Richard, 7, Milano","bank,finance,point_of_interest,establishment",OPERATIONAL,milan,2026-02-06T15:15:55.072744
ChIJmQxLz8TDhkcR-ztQilReuhA,Banca Popolare di Sondrio SpA,bank,45.4431496,9.1644318,3.3,16.0,,"CARLO 1, Via Carlo Bo, 1, Milano","bank,finance,point_of_interest,establishment",OPERATIONAL,milan,2026-02-06T15:15:55.261441
ChIJc1P1c9DGhkcRcNlKkIX5_RE,Nextmove // Web and Digital Agency,bank,45.44157149999999,9.175921299999999,,,,"Via Ascanio Sforza, 85, Milano","bank,finance,point_of_interest,establishment",OPERATIONAL,milan,2026-02-06T15:15:55.433059
ChIJb8Y7-gDFhkcR3b8kVJyNCQU,Banca Monte dei Paschi di Siena S.p.A,bank,45.4414324,9.216666,2.5,16.0,,"Viale Brenta, 16/18, Milano","bank,finance,point_of_interest,establishment",OPERATIONAL,milan,2026-02-06T15:15:56.466745
ChIJ3-Y7qzbEhkcR8ZDMINj_yWM,Milano Hub,bank,45.4413929,9.216799,,,,"Viale Brenta, 18, Milano","bank,finance,point_of_interest,establishment",OPERATIONAL,milan,2026-02-06T15:15:56.466773
ChIJ_fIslzPEhkcRB_Bo_ZwVHRM,Crédit Agricole Italia,bank,45.44197399999999,9.219809999999999,4.3,38.0,,"Corso Lodi, 102, Milano","bank,atm,insurance_agency,health,finance,point_of_interest,establishment",OPERATIONAL,milan,2026-02-06T15:15:56.593472
ChIJq8dzYTPEhkcRCA9SceV3Piw,UniCredit,bank,45.4412417,9.2211415,2.9,92.0,,"C.SO LODI, Via Oglio, 110, Milano","bank,finance,point_of_interest,establishment",OPERATIONAL,milan,2026-02-06T15:15:56.593507
ChIJ6eiBT8vFhkcRNJfCiTxaMpg,Intesa Sanpaolo S.p.A.,bank,45.4401978,9.22335,1.7,95.0,,"Corso Lodi, 132, Milano","bank,atm,finance,point_of_interest,establishment",OPERATIONAL,milan,2026-02-06T15:15:56.593515
ChIJERRYtEHFhkcR3Lvgjiz8X2U,Banco BPM,bank,45.4433526,9.217752200000001,2.8,12.0,,"Corso Lodi, 83, Milano","bank,atm,finance,point_of_interest,establishment",OPERATIONAL,milan,2026-02-06T15:15:56.593520
ChIJk88lss_FhkcR5Q-jGTKGJik,Bcc,bank,45.4432605,9.2326754,3.0,2.0,,"Via Vincenzo Toffetti, 108, Milano","bank,finance,point_of_interest,establishment",OPERATIONAL,milan,2026-02-06T15:15:56.840096
ChIJoTXz4UbChkcRoxPrbkUc4iA,BNL BNP Paribas,bank,45.442705,9.114818999999999,2.2,19.0,,"Via Giuseppe di Vittorio, 10, Corsico","bank,atm,finance,point_of_interest,establishment",OPERATIONAL,milan,2026-02-06T15:15:57.906193
ChIJwwWz6DjChkcRvpqcfIi9AO0,Pfizer Leasing Ireland Limited,bank,45.4466936,9.1158611,,,,"Via Anna Maria Mozzoni, 12, Milano","bank,finance,point_of_interest,establishment",OPERATIONAL,milan,2026-02-06T15:15:57.906220
ChIJmZXVciXDhkcRlpRvXqtgvF4,Intesa Sanpaolo SPA,bank,45.4459405,9.1197566,3.0,3.0,,"Via Bisceglie, 120, Milano","bank,finance,point_of_interest,establishment",OPERATIONAL,milan,2026-02-06T15:15:57.906230
ChIJA0m_9AnEhkcRFTp7plGKPY4,Intesa Sanpaolo S.p.A.,bank,45.4452265,9.179065,2.5,30.0,,"Via Giuseppe Meda, 12, Milano","bank,atm,finance,point_of_interest,establishment",OPERATIONAL,milan,2026-02-06T15:15:59.128556
ChIJdfinKAjEhkcRpTGlNoCx3T4,Euronet Pay & Transaction Services S.r.l,bank,45.4476145,9.178629200000001,1.0,1.0,,"Via Pavia, 6, Milano","bank,finance,point_of_interest,establishment",OPERATIONAL,milan,2026-02-06T15:15:59.128584
ChIJm-b49aTFhkcRzluoQdb7tDs,Banca Monte dei Paschi di Siena S.p.A,bank,45.4475801,9.1793421,3.6,9.0,,"Via Pavia, 2/A, Milano","bank,finance,point_of_interest,establishment",OPERATIONAL,milan,2026-02-06T15:15:59.248691
ChIJSRR66iTEhkcR2mEuvlQhb3g,BNL BNP Paribas,bank,45.44820530000001,9.2094725,1.7,36.0,,"Corso Lodi, 37, Milano","bank,atm,finance,point_of_interest,establishment",OPERATIONAL,milan,2026-02-06T15:15:59.538935
ChIJP47zISXEhkcRxs4LQcCppaM,Banco BPM,bank,45.4484118,9.211834399999999,3.2,21.0,,"Viale Umbria, 4, Milano","bank,finance,point_of_interest,establishment",OPERATIONAL,milan,2026-02-06T15:16:00.159848
ChIJZy8TmdzFhkcR9A8MKmg_Wh8,Intesa Sanpaolo S.p.A.,bank,45.4455686,9.244568899999999,2.1,59.0,,"Viale Ungheria, 14/1, Milano","bank,atm,finance,point_of_interest,establishment",OPERATIONAL,milan,2026-02-06T15:16:00.493920
ChIJp1qR1wzChkcRH8nFGoiU64I,Intesa Sanpaolo S.p.A.,bank,45.4461146,9.094606700000002,2.0,48.0,,"Via Monsignor Pogliani, 13, Cesano Boscone","bank,atm,finance,point_of_interest,establishment",OPERATIONAL,milan,2026-02-06T15:16:01.534163
ChIJP60prHLChkcReig9AuoN4eU,Cristallo Sas,bank,45.4464215,9.0980303,,,,"Via A. Grandi, 15, Cesano Boscone","bank,finance,point_of_interest,establishment",OPERATIONAL,milan,2026-02-06T15:16:01.534196
ChIJL86uNszDhkcRQDhTGaXCsno,Banco BPM,bank,45.44972729999999,9.137232399999998,1.8,31.0,,"Via Lorenteggio, 161, Milano","bank,atm,finance,point_of_interest,establishment",OPERATIONAL,milan,2026-02-06T15:16:01.941899
ChIJF-q0Pc_DhkcRSA608g-_dxA,UniCredit,bank,45.4527905,9.142172,2.3,92.0,,"VIA D'ALVIANO, ANG. FRATTINI, 2, Milano","bank,finance,point_of_interest,establishment",OPERATIONAL,milan,2026-02-06T15:16:02.062096
ChIJn8emMc7DhkcRn3LIasxqjIA,Intesa Sanpaolo S.p.A.,bank,45.4517688,9.1413316,1.8,79.0,,"Via Lorenteggio, 70, Milano","bank,atm,finance,point_of_interest,establishment",OPERATIONAL,milan,2026-02-06T15:16:02.062127
ChIJkcBSys_DhkcRyqM49ueAPDM,Crédit Agricole Italia,bank,45.451201,9.142071,3.4,28.0,,"Piazza Pietro Frattini, 19, Milano","bank,atm,insurance_agency,finance,health,point_of_interest,establishment",OPERATIONAL,milan,2026-02-06T15:16:02.062137
ChIJbSi9MM7DhkcR5IIy9NhQw1g,Brianzarredi,bank,45.4515944,9.141106699999998,,,,Italy,"bank,finance,point_of_interest,establishment",OPERATIONAL,milan,2026-02-06T15:16:02.062147
ChIJe8Q1rdzDhkcRNBreY80Ydv0,Findomestic Banca - Milano - Foppette,bank,45.451192,9.1507756,3.5,42.0,,"Via Giambellino, 20, Milano","bank,finance,point_of_interest,establishment",OPERATIONAL,milan,2026-02-06T15:16:02.209727
ChIJ8fokvsTDhkcRtdTQxP5OB_Q,Banca Popolare di Sondrio SpA,bank,45.450556,9.149030899999998,2.1,12.0,,"Via Giambellino, 39, Milano","bank,finance,point_of_interest,establishment",OPERATIONAL,milan,2026-02-06T15:16:02.209765
ChIJzVDXmubDhkcRVdLX7Q4dOrE,Koniqa srl,bank,45.4500114,9.153165399999997,,,,"Via Savona, 97, Milano","bank,finance,point_of_interest,establishment",OPERATIONAL,milan,2026-02-06T15:16:02.209776
ChIJabafJ93DhkcR2h44VTzXrwE,Intesa Sanpaolo S.p.A.,bank,45.45210349999999,9.1537993,1.7,53.0,,"Piazza Napoli, 31, Milano","bank,atm,finance,point_of_interest,establishment",OPERATIONAL,milan,2026-02-06T15:16:02.328516
ChIJp7GzEt3DhkcRHMi7yObEDHg,Crédit Agricole Italia,bank,45.4529969,9.1554122,3.5,17.0,,"Piazza Napoli, 19, Milano","bank,atm,insurance_agency,finance,health,point_of_interest,establishment",OPERATIONAL,milan,2026-02-06T15:16:02.328553
ChIJc9ogCN3DhkcRSKoBghwpMe4,BNL Gruppo BNP Paribas ag.15,bank,45.4532649,9.155182000000002,3.7,27.0,,"Piazza Napoli, 15, Milano","bank,atm,finance,point_of_interest,establishment",OPERATIONAL,milan,2026-02-06T15:16:02.328563
ChIJRUXsagfEhkcRTB-AyIxpEws,BCC Carate e Treviglio - Milano Ventiquattro Maggio,bank,45.452614,9.181349,3.7,7.0,,"Piazza Ventiquattro Maggio, 7, Milano","bank,atm,finance,point_of_interest,establishment",OPERATIONAL,milan,2026-02-06T15:16:03.150110
ChIJfbWoNh_EhkcR3zexxaUwvng,UniCredit,bank,45.4517529,9.179965300000001,3.6,219.0,,"C.SO SAN GOTTARDO, 2 ANG. P.LE XXIV MAGGIO, Milano","bank,finance,point_of_interest,establishment",OPERATIONAL,milan,2026-02-06T15:16:03.150162
ChIJuWutifzDhkcRCn6nDbIoJ84,Intesa Sanpaolo S.p.A.,bank,45.4519818,9.1805908,2.7,88.0,,"Via Trincea Delle Frasche, 2, Milano","bank,atm,finance,point_of_interest,establishment",OPERATIONAL,milan,2026-02-06T15:16:03.150169
ChIJ8Th7XvDngEcRJhlZLqF3Vv4,INTESA SANPAOLO PRIVATE BANKING S.P.A.,bank,45.4518816,9.1803939,3.2,13.0,,"Corso San Gottardo, 1, Milano","bank,finance,point_of_interest,establishment",OPERATIONAL,milan,2026-02-06T15:16:03.150174
ChIJBS_aY_jDhkcRevkXnkev02Y,Banco BPM,bank,45.45175700000001,9.179986,2.3,10.0,,"Corso San Gottardo, 2-A, Milano","bank,atm,finance,point_of_interest,establishment",OPERATIONAL,milan,2026-02-06T15:16:03.150180
ChIJraOJbAfEhkcRDDoLpQKJ_x8,Credito Cooperativo,bank,45.45240190000001,9.181171800000003,1.0,1.0,,"Piazza Ventiquattro Maggio, Milano","bank,finance,point_of_interest,establishment",OPERATIONAL,milan,2026-02-06T15:16:03.150185
ChIJRyGzXAfEhkcR78MDfCuQz8E,BNL Gruppo BNP Paribas Ag.2,bank,45.4529698,9.1818028,2.2,23.0,,"Piazza Ventiquattro Maggio angolo, Viale Gian Galeazzo, 3, Milano","bank,atm,finance,point_of_interest,establishment",OPERATIONAL,milan,2026-02-06T15:16:03.150190
ChIJHeqOKATEhkcR1UqI1K25wHQ,"Banco Desio - Filiale di Milano Lodovica, via Col di Lana ang. via Bainsizza 2",bank,45.4517447,9.185515400000002,3.0,1.0,,"Viale Col di Lana, Via Bainsizza, 2, Milano","bank,finance,point_of_interest,establishment",OPERATIONAL,milan,2026-02-06T15:16:03.150196
ChIJdbb6MQXEhkcRg7wHOI5xP_A,Banca Popolare di Sondrio SpA,bank,45.4503469,9.1875612,2.3,42.0,,"Via Guglielmo Röntgen, 1, Milano","bank,finance,point_of_interest,establishment",OPERATIONAL,milan,2026-02-06T15:16:03.273352
ChIJMzmYQATEhkcRxoy4Q75k_GA,Crédit Agricole Italia,bank,45.4517834,9.187361799999998,3.8,28.0,,"Viale Bligny, 1/3, Milano","bank,atm,insurance_agency,finance,point_of_interest,health,establishment",OPERATIONAL,milan,2026-02-06T15:16:03.273405
ChIJywWDE4vFhkcR7WWB0V8pXEo,Banco BPM,bank,45.451328,9.190143100000002,2.3,6.0,,"Via Ferdinando Bocconi, 2, Milano","bank,atm,finance,point_of_interest,establishment",OPERATIONAL,milan,2026-02-06T15:16:03.273417
ChIJO64dvAbEhkcRtgbNXG7osHw,BPER Banca,bank,45.4526979,9.184726600000001,2.4,37.0,,"Viale Gian Galeazzo, 25, Milano","bank,atm,insurance_agency,finance,point_of_interest,establishment",OPERATIONAL,milan,2026-02-06T15:16:03.273426
ChIJJ4LodSLEhkcRNKVxwEnz_wk,Crédit Agricole Italia,bank,45.45082199999999,9.202739000000001,3.6,19.0,,"Via Crema, 1, Milano","bank,atm,insurance_agency,finance,health,point_of_interest,establishment",OPERATIONAL,milan,2026-02-06T15:16:03.482611
ChIJ68d_NR_EhkcRfeS_C2WZVIA,UniCredit,bank,45.4525334,9.201339899999999,2.8,69.0,,"Corso di Porta Romana, 132, Milano","bank,finance,point_of_interest,establishment",OPERATIONAL,milan,2026-02-06T15:16:03.482666
ChIJ6ehBUh_EhkcREWnbOM_bx4s,Banco BPM,bank,45.45245159999999,9.202227899999999,1.6,23.0,,"Piazzale Medaglie D'Oro, 1, Milano","bank,atm,finance,point_of_interest,establishment",OPERATIONAL,milan,2026-02-06T15:16:03.482676
ChIJH9H_VB_EhkcRyArf9nuL2Vk,Banca Assicurazione,bank,45.45231570000001,9.2029344,,,,"Viale Monte Nero, Milano","bank,finance,point_of_interest,establishment",OPERATIONAL,milan,2026-02-06T15:16:03.482685
ChIJX0WMtBjEhkcR2QNVyxoDcms,Intesa Sanpaolo S.p.A.,bank,45.4522548,9.203085299999998,1.5,105.0,,"Piazzale Medaglie D'Oro, 3, Milano","bank,atm,finance,point_of_interest,establishment",OPERATIONAL,milan,2026-02-06T15:16:03.482693
ChIJbzufmCPEhkcRVefAem_Jay8,Fineco,bank,45.449843,9.206740000000003,2.3,7.0,,"Via Lazzaro Papi, 2, Milano","bank,insurance_agency,finance,point_of_interest,establishment",OPERATIONAL,milan,2026-02-06T15:16:03.602023
ChIJ5W8lnSPEhkcR5_1tFnJEWWY,Banca Popolare di Sondrio SpA,bank,45.44956879999999,9.207271400000002,1.9,11.0,,"CORSO LODI, ANG, Via San Gerolamo Emiliani, 1, Milano","bank,finance,point_of_interest,establishment",OPERATIONAL,milan,2026-02-06T15:16:03.602085
ChIJFVzGbvHFhkcRMUoz5AeATWc,Banca Monte dei Paschi di Siena S.p.A,bank,45.4491508,9.2066184,4.0,20.0,,"Corso Lodi, 18, Milano","bank,finance,point_of_interest,establishment",OPERATIONAL,milan,2026-02-06T15:16:03.602098
ChIJkTatsiTEhkcRPxmxdXfwqDw,Deutsche Bank Easy,bank,45.4490364,9.2092752,5.0,6.0,,"Via Friuli, 8, Milano","bank,insurance_agency,finance,point_of_interest,establishment",OPERATIONAL,milan,2026-02-06T15:16:03.602107
ChIJ57BA2iPEhkcRLRQTBlyLaLc,Calciano Giulio,bank,45.4516629,9.206143299999999,,,,"Via Francesco Burlamacchi, 11/Primo piano, Milano","bank,finance,point_of_interest,establishment",OPERATIONAL,milan,2026-02-06T15:16:03.602117
ChIJydYPHizEhkcRXGSMe1vy1UE,Banco BPM,bank,45.4498125,9.219867499999998,2.6,14.0,,"Via Alberto Caroncini, 6, Milano","bank,atm,finance,point_of_interest,establishment",OPERATIONAL,milan,2026-02-06T15:16:03.883628
ChIJG7VAHNnFhkcRGoM8Lq7VRew,Compagnia Milanese D'Investimenti,bank,45.45107799999999,9.241575199999998,,,,"Via Oreste Salomone, 61, Milano","bank,finance,point_of_interest,establishment",OPERATIONAL,milan,2026-02-06T15:16:04.626150
ChIJKaY_Nk3thkcR53glUYPhyRE,Togs Lab,bank,45.4517573,9.2492807,,,,"Via Mecenate, 84/29, Milano","bank,finance,point_of_interest,establishment",OPERATIONAL,milan,2026-02-06T15:16:04.735078
ChIJC3WkeuDFhkcRCAFwCjvGHWc,UniCredit,bank,45.4501125,9.2522989,2.3,35.0,,"Via Mecenate, 103, Milano","bank,finance,point_of_interest,establishment",OPERATIONAL,milan,2026-02-06T15:16:04.861215
ChIJF8LnzHDFhkcRr5nGtyrmUyM,Banco BPM,bank,45.4510194,9.2510982,2.6,5.0,,"Via Mecenate, 99, Milano","bank,atm,finance,point_of_interest,establishment",OPERATIONAL,milan,2026-02-06T15:16:04.861261
ChIJn1MEqQXChkcRHjLu6THptEw,Crédit Agricole Italia,bank,45.457726,9.097026000000001,3.7,21.0,,"Via Maffeo Bagarotti, 5, Milano","bank,atm,insurance_agency,finance,point_of_interest,health,establishment",OPERATIONAL,milan,2026-02-06T15:16:05.925617
ChIJRy6IKovDhkcRc1aq35iS1dQ,Banca Monte dei Paschi di Siena S.p.A,bank,45.45451240000001,9.134834500000002,3.4,38.0,,"Via Luigi Soderini, 50, Milano","bank,finance,point_of_interest,establishment",OPERATIONAL,milan,2026-02-06T15:16:06.294563
ChIJBfbtaNrDhkcR-EeQAcZQPvA,BPER Banca,bank,45.4549897,9.147014700000001,3.1,30.0,,"Via Ettore Romagnoli, 6, Milano","bank,atm,insurance_agency,finance,point_of_interest,establishment",OPERATIONAL,milan,2026-02-06T15:16:06.487954
ChIJzQA5R0rDhkcRBVyxa9FKu6k,Banco BPM,bank,45.4540208,9.152914800000001,2.0,28.0,,"Piazza Napoli, 16, Milano","bank,atm,finance,point_of_interest,establishment",OPERATIONAL,milan,2026-02-06T15:16:07.436291
ChIJ5whXXtzDhkcR0LxJf0glUbI,Coordinamento Lombardo Conacuore,bank,45.4540208,9.152914800000001,,,,"Piazza Napoli ag., 27, Banca Popolare di Milano","bank,finance,point_of_interest,establishment",OPERATIONAL,milan,2026-02-06T15:16:07.436343
ChIJc9ogCN3DhkcRAU3lPySjx5E,Unicredit,bank,45.4535683,9.1551001,3.3,72.0,,"Piazza Napoli, 15, Milano","bank,finance,point_of_interest,establishment",OPERATIONAL,milan,2026-02-06T15:16:07.551969
ChIJfScFGeTDhkcRXbnB4s6nbBM,Banca Sella S.p.A,bank,45.4544946,9.1635411,3.5,20.0,,"Via Ambrogio Bergognone da Fossano, 27, Milano","bank,finance,point_of_interest,establishment",OPERATIONAL,milan,2026-02-06T15:16:07.694599
ChIJw70DbeHDhkcR7XYmakEfe7c,Intesa Sanpaolo S.p.A.,bank,45.4571026,9.162424500000002,2.1,57.0,,"Via Valparaiso, 18, Milano","bank,atm,finance,point_of_interest,establishment",OPERATIONAL,milan,2026-02-06T15:16:07.694647
ChIJZTsFkePDhkcROKPVVBm3Unc,Mediobanca Premier,bank,45.4559716,9.1655722,3.1,13.0,,"Via Andrea Solari, 19, Milano","bank,finance,point_of_interest,establishment",OPERATIONAL,milan,2026-02-06T15:16:07.694661
ChIJ53nBjvnDhkcRTlvjOatUoBU,Banca Popolare di Sondrio SpA,bank,45.4558921,9.165917900000002,3.5,20.0,,"Via Andrea Solari, 15, Milano","bank,finance,point_of_interest,establishment",OPERATIONAL,milan,2026-02-06T15:16:07.694671
ChIJnZh6e-HDhkcRMUIfYtuBdgE,Giudici Alberto,bank,45.4572756,9.163973200000001,,,,"Via Valparaiso, 7, Milano","bank,finance,point_of_interest,establishment",OPERATIONAL,milan,2026-02-06T15:16:07.694677
ChIJuT9H2uLDhkcR0IeZBPBRSrE,UniCredit,bank,45.4576102,9.169265099999999,3.6,58.0,,"VIA MODESTINO, Viale Coni Zugna, 3, Milano","bank,finance,point_of_interest,establishment",OPERATIONAL,milan,2026-02-06T15:16:07.815410
ChIJ3c6C1_zDhkcRNZFOZeGrX1M,Intesa Sanpaolo S.p.A.,bank,45.4553048,9.172012100000002,1.9,55.0,,"Viale Coni Zugna, 62, Milano","bank,atm,finance,point_of_interest,establishment",OPERATIONAL,milan,2026-02-06T15:16:07.815454
ChIJj-KrnJPDhkcRGapWADt1uaA,ItalyatHome,bank,45.4561147,9.1694483,,,,"Via Savona, 2/A, Milano","bank,finance,point_of_interest,establishment",OPERATIONAL,milan,2026-02-06T15:16:07.815465
ChIJjeEKUfzDhkcRmJbPCrKCs0w,Crédit Agricole Italia,bank,45.4565898,9.1728775,4.1,17.0,,"Viale Papiniano, 59, Milano","bank,atm,insurance_agency,finance,point_of_interest,health,establishment",OPERATIONAL,milan,2026-02-06T15:16:07.953475
ChIJ-fmCR_zDhkcRiPVr5RAYwVw,Deutsche Bank,bank,45.45630680000001,9.1736217,2.0,24.0,,"Piazzale Antonio Cantore, 2, Milano","bank,finance,point_of_interest,establishment",OPERATIONAL,milan,2026-02-06T15:16:07.953534
ChIJ26DSmzbDhkcRO6dX_i3JHUY,Banco BPM,bank,45.4561404,9.174131199999998,2.7,29.0,,"Corso Genova, 29, Milano","bank,atm,finance,point_of_interest,establishment",OPERATIONAL,milan,2026-02-06T15:16:07.953549
ChIJgbxArgHEhkcRvoZs_2ZsLKM,Crédit Agricole Italia,bank,45.456433,9.184652999999999,1.9,14.0,,"Via Molino delle Armi, 23, Milano","bank,atm,insurance_agency,finance,health,point_of_interest,establishment",OPERATIONAL,milan,2026-02-06T15:16:08.079867
ChIJ354sAwLEhkcRIfNKPqTgElQ,Intesa Sanpaolo S.p.A.,bank,45.457461,9.187395400000002,1.6,76.0,,"Corso Italia, 22, Milano","bank,atm,finance,point_of_interest,establishment",OPERATIONAL,milan,2026-02-06T15:16:08.212634
ChIJVVWFPSLEhkcROc8JFiRXOdQ,Mediobanca Premier,bank,45.4568336,9.194705,2.4,40.0,,"Corso di Porta Romana, 57, Milano","bank,atm,finance,point_of_interest,establishment",OPERATIONAL,milan,2026-02-06T15:16:08.366785
ChIJd0yM_6fGhkcR4W_z30ien04,Banca Popolare di Sondrio SpA,bank,45.4577107,9.1933562,2.6,8.0,,"VIA F. SFORZA ANGOLO, Corso di Porta Romana, 48, Milano","bank,finance,point_of_interest,establishment",OPERATIONAL,milan,2026-02-06T15:16:08.366826
ChIJE_52LgDFhkcRgccF0SXyK80,BCC Carate e Treviglio - Milano Porta Romana,bank,45.4567176,9.1952573,5.0,1.0,,"Corso di Porta Romana, 63, Milano","bank,atm,finance,point_of_interest,establishment",OPERATIONAL,milan,2026-02-06T15:16:08.366835
ChIJm-4gRR3EhkcRA7C6qMff_ps,Fineco Center,bank,45.457007,9.194132999999999,3.3,10.0,,"Corso di Porta Romana, 68, Milano","bank,insurance_agency,finance,point_of_interest,establishment",OPERATIONAL,milan,2026-02-06T15:16:08.366841
ChIJ-7Wq6x7EhkcR0TjchOx2w_g,Banca Popolare di Sondrio SpA,bank,45.4536189,9.199295800000002,2.6,8.0,,"Corso di Porta Romana, 120, Milano","bank,finance,point_of_interest,establishment",OPERATIONAL,milan,2026-02-06T15:16:08.366848
ChIJ-zsa6h7EhkcRYGCydf8vg3c,Agenzia 33 Banca,bank,45.45369099999999,9.199508300000002,5.0,1.0,,"Corso di Porta Romana, 120, Milano","bank,finance,point_of_interest,establishment",OPERATIONAL,milan,2026-02-06T15:16:08.366858
ChIJvVRRsa3GhkcRoXur8llglKY,"Banco Desio - Filiale di Milano, Via Santa Sofia 18",bank,45.4573641,9.190703699999998,4.0,6.0,,"Via Santa Sofia, 18, Milano","bank,finance,point_of_interest,establishment",OPERATIONAL,milan,2026-02-06T15:16:08.366864
ChIJiVUoYh_EhkcR5Ag4OKIxkPM,"Banco Desio - Filiale di Milano, viale Monte Nero 11",bank,45.45358909999999,9.203197199999998,3.8,5.0,,"Viale Monte Nero, 11, Milano","bank,finance,point_of_interest,establishment",OPERATIONAL,milan,2026-02-06T15:16:08.511957
ChIJeXw8WPHDhkcRAccp_0xRZDU,Sales Cafe,bank,45.4549236,9.203463,5.0,1.0,,"Viale Emilio Caldara, 24, Milano","bank,finance,point_of_interest,establishment",OPERATIONAL,milan,2026-02-06T15:16:08.511997
ChIJC-1-WifFhkcRe_D1_yKKPLI,Alessandro Gherardotti - Sviluppo delle Vendite - Creazione Reti Commerciali - National Sales Recruiter at Pagine Sì! S.p.A.,bank,45.4534228,9.209914399999999,5.0,1.0,,"Piazzale Libia, 2, Milano","bank,finance,point_of_interest,establishment",OPERATIONAL,milan,2026-02-06T15:16:08.645540
ChIJZVYE85_GhkcR6oAoMvxkIxQ,Bbc Caravaggio,bank,45.4577877,9.2054052,5.0,1.0,,"Viale Monte Nero, Milano","bank,finance,point_of_interest,establishment",OPERATIONAL,milan,2026-02-06T15:16:08.645595
ChIJ4x3m8p_GhkcRi8crirENN8I,Bcc Credito Cooperativo,bank,45.4578295,9.205409399999999,4.2,10.0,,"Viale Monte Nero, Milano","bank,atm,finance,point_of_interest,establishment",OPERATIONAL,milan,2026-02-06T15:16:08.645606
ChIJA_RYBAjEhkcRdQgGBgCL_1E,Findomestic Banca - Milano - Calvairate,bank,45.4551813,9.215945,4.0,66.0,,"Viale Umbria, 83, Milano","bank,finance,point_of_interest,establishment",OPERATIONAL,milan,2026-02-06T15:16:09.277892
ChIJo9fpD5vGhkcRoi6WgjWIGDo,UniCredit,bank,45.453983,9.215796300000001,2.3,59.0,,"Viale Umbria, 60, Milano","bank,finance,point_of_interest,establishment",OPERATIONAL,milan,2026-02-06T15:16:09.277944
ChIJNbD1nyfEhkcRf2aZeXQrwCo,Lanzoni Cristina,bank,45.4548873,9.2127099,,,,"Via Comelico, 18, Milano","bank,finance,point_of_interest,establishment",OPERATIONAL,milan,2026-02-06T15:16:09.277955
ChIJxRT0mCnEhkcRNg6qovnvxQ8,Crédit Agricole Italia,bank,45.4537635,9.2197173,3.7,6.0,,"Via Scipione Pistrucci, 25/N08, Milano","atm,bank,finance,point_of_interest,establishment",OPERATIONAL,milan,2026-02-06T15:16:09.391436
ChIJlfInmCnEhkcR8O27vRj7wzk,Crédit Agricole Italia,bank,45.45381,9.219753999999998,2.1,17.0,,"Via Scipione Pistrucci, 25, Milano","bank,atm,insurance_agency,finance,health,point_of_interest,establishment",OPERATIONAL,milan,2026-02-06T15:16:09.391465
ChIJDYm87WLGhkcRJJBaSqQGEoE,Intesa Sanpaolo S.p.A.,bank,45.4549808,9.2266955,2.2,39.0,,"Via Paolo Maspero, 20, Milano","bank,atm,finance,point_of_interest,establishment",OPERATIONAL,milan,2026-02-06T15:16:09.513725
ChIJYzyFEX_GhkcR_49TF4IKdBc,Banca Popolare di Sondrio SpA,bank,45.45502159999999,9.231845200000002,2.0,4.0,,"Via Cesare Lombroso, 54, Milano","bank,finance,point_of_interest,establishment",OPERATIONAL,milan,2026-02-06T15:16:09.623766
ChIJYzyFEX_GhkcRBuSrUx9NB7I,Intesa Sanpaolo S.p.A. - Sportello,bank,45.4550805,9.232276700000002,1.0,1.0,,"Via Cesare Lombroso, 54 C/O Ortomercato, Milano","bank,finance,point_of_interest,establishment",OPERATIONAL,milan,2026-02-06T15:16:09.623807
ChIJCbS0IXfGhkcRxUOUFtuWSLc,Crédit Agricole Italia,bank,45.457241,9.242719999999998,2.2,25.0,,"Via Dalmazia, 2/A, Milano","bank,atm,insurance_agency,finance,health,point_of_interest,establishment",OPERATIONAL,milan,2026-02-06T15:16:09.811633
ChIJB9S8qwbChkcRV-LBUmkJOZg,BPER Banca,bank,45.4605455,9.094567100000003,3.0,12.0,,"Via delle Forze Armate, 365, Milano","bank,atm,insurance_agency,finance,point_of_interest,establishment",OPERATIONAL,milan,2026-02-06T15:16:10.887014
ChIJXYZVBgTChkcR8SEFb4Jnw-U,Banco BPM,bank,45.4605725,9.0957902,1.9,40.0,,"Via Salvo D'Acquisto, 4, Milano","bank,atm,finance,point_of_interest,establishment",OPERATIONAL,milan,2026-02-06T15:16:10.887059
ChIJnx0shwjChkcRBAt_sM0mETE,Intesa Sanpaolo S.p.A.,bank,45.4604427,9.097512,1.9,65.0,,"Via delle Forze Armate, 336, Milano","bank,atm,finance,point_of_interest,establishment",OPERATIONAL,milan,2026-02-06T15:16:11.009753
ChIJfYGk9hvChkcRvg3xG2houeQ,Banca Popolare di Sondrio SpA,bank,45.4601839,9.106528200000001,4.5,8.0,,"Via delle Forze Armate, 260, Milano","bank,finance,point_of_interest,establishment",OPERATIONAL,milan,2026-02-06T15:16:11.197656
ChIJYQgiZ9XDhkcR0HWrOe8WvB0,BNL BNP Paribas,bank,45.46195779999999,9.1378759,2.9,15.0,,"Piazzale Giovanni delle Bande Nere, 2, Milano","bank,atm,finance,point_of_interest,establishment",OPERATIONAL,milan,2026-02-06T15:16:12.076299
ChIJy9oWsnrDhkcRIFPebRl92L8,Banca Popolare di Sondrio SpA,bank,45.4593313,9.1391337,3.3,3.0,,"Via Bartolomeo D'Alviano, 78, Milano","bank,finance,point_of_interest,establishment",OPERATIONAL,milan,2026-02-06T15:16:12.076347
ChIJ_QTC9tfDhkcRL6ds06eIFI4,Banco BPM,bank,45.4605793,9.1468686,4.2,101.0,,"Via Massaua, 6, Milano","bank,finance,point_of_interest,establishment",OPERATIONAL,milan,2026-02-06T15:16:12.198385
ChIJNUVX06_GhkcRnjnSKgK5dss,Webank,bank,45.4610299,9.1483045,2.0,170.0,,"Via Massaua, 4, Milano","bank,finance,point_of_interest,establishment",OPERATIONAL,milan,2026-02-06T15:16:12.318320
ChIJdSJQwtjDhkcRR-vNea2csfw,Guida Vincenzo Vincenzo,bank,45.4594624,9.151705,5.0,1.0,,"Via Bartolomeo d'Alviano, 71, Milano","bank,finance,point_of_interest,establishment",OPERATIONAL,milan,2026-02-06T15:16:12.318403
ChIJk9HViPnDhkcRPODhxqtgiJ8,Banca Mediolanum | Ufficio dei Consulenti Finanziari,bank,45.4587165,9.1528636,,,,"Via Roncaglia, 13, Milano","bank,finance,point_of_interest,establishment",OPERATIONAL,milan,2026-02-06T15:16:12.318419
ChIJTa-_Ed_DhkcRZV7G4NpbIyw,UniCredit,bank,45.45913659999999,9.1550721,3.9,81.0,,"Via Giorgio Washington, 61, Milano","bank,finance,point_of_interest,establishment",OPERATIONAL,milan,2026-02-06T15:16:12.445271
ChIJ5zcYEXnDhkcRa3OzVE9ABU0,Banca Monte dei Paschi di Siena S.p.A.,bank,45.459534,9.156396499999998,4.4,28.0,,"Via Giacomo Boni, 24, Milano","bank,finance,point_of_interest,establishment",OPERATIONAL,milan,2026-02-06T15:16:12.445329
ChIJW-9e9eHDhkcRVFNUWCTO9wI,"Banco Desio - Filiale di Milano, via Foppa 5",bank,45.45868569999999,9.1640493,4.2,5.0,,"Via Vincenzo Foppa, 5, Milano","bank,finance,point_of_interest,establishment",OPERATIONAL,milan,2026-02-06T15:16:12.566636
ChIJkZttG1LBhkcRvItpINl3SEk,DGE Group,bank,45.46017610000001,9.1723238,,,,"Via Privata del Gonfalone, 3, Milano","bank,finance,point_of_interest,establishment",OPERATIONAL,milan,2026-02-06T15:16:12.670159
ChIJVVVFwlfBhkcRwbCP3x4Wb20,Trust Company,bank,45.46017610000001,9.1723238,,,,"Via Privata del Gonfalone, 3, Milano","bank,finance,point_of_interest,establishment",OPERATIONAL,milan,2026-02-06T15:16:12.670212
ChIJFWKwo1fBhkcRAAItSu_U0ko,Société Générale Corporate & Investment Banking,bank,45.4618206,9.1726276,3.6,5.0,,"Via Olona, 2, Milano","atm,bank,finance,point_of_interest,establishment",OPERATIONAL,milan,2026-02-06T15:16:12.794846
ChIJC5NbJ-YOLxMRrD3mUa7EhFg,Intesa Sanpaolo S.p.A. - Filiale Imprese,bank,45.4591568,9.1777814,2.1,26.0,,"Via Edmondo de Amicis, 26, Milano","bank,finance,point_of_interest,establishment",OPERATIONAL,milan,2026-02-06T15:16:12.794887
ChIJ3bb3RVbBhkcRJgn-9wHMGzk,BPER Leasing - Sardaleasing Spa,bank,45.4604431,9.174530800000001,1.9,7.0,,"Via Edmondo de Amicis, 51, Milano","bank,finance,point_of_interest,establishment",OPERATIONAL,milan,2026-02-06T15:16:12.794895
ChIJ3bb3RVbBhkcRt1A7tfb1Uj8,Fineco,bank,45.46054399999999,9.174642,3.1,8.0,,"Via Edmondo de Amicis, 51, Milano","bank,insurance_agency,finance,point_of_interest,establishment",OPERATIONAL,milan,2026-02-06T15:16:12.794902
ChIJJ7E-UarGhkcRsVTY_4EDfMI,Banca Generali Private,bank,45.4602327,9.185734799999999,5.0,1.0,,"Via dei Piatti, 11, Milano","bank,finance,point_of_interest,establishment",OPERATIONAL,milan,2026-02-06T15:16:12.921497
ChIJMersNavGhkcRvyRIALSQOlk,Bhw Bausparkasse Ag,bank,45.4621072,9.1832806,,,,"Via Santa Marta, 12, Milano","bank,finance,point_of_interest,establishment",OPERATIONAL,milan,2026-02-06T15:16:12.921518
ChIJdfcAAqvGhkcRe_tTzClh0w0,Crystal Gem,bank,45.46074610000001,9.1850934,4.8,17.0,,"Via dei Piatti, 4, Milano","bank,finance,point_of_interest,establishment",OPERATIONAL,milan,2026-02-06T15:16:12.921523
ChIJAQAEUarGhkcRw6g9P-yyodc,Generfid,bank,45.4602531,9.185832999999999,,,,"Via dei Piatti, 11, Milano","bank,finance,point_of_interest,establishment",OPERATIONAL,milan,2026-02-06T15:16:12.921527
ChIJ-QMirqvGhkcRPyGSjQhbqHg,Banca Generali Private - Succursale,bank,45.460976,9.1860668,3.4,12.0,,"Piazza Sant'Alessandro, 4, Milano","bank,atm,finance,point_of_interest,establishment",OPERATIONAL,milan,2026-02-06T15:16:13.084883
ChIJsQ8bQ6nGhkcRmi6AMtU8wcQ,Banca Sella S.p.A,bank,45.4617633,9.189746900000001,3.3,15.0,,"Via Maurizio Gonzaga, 3, Milano","bank,finance,point_of_interest,establishment",OPERATIONAL,milan,2026-02-06T15:16:13.084908
ChIJhwm0BwLEhkcRxCG9vs_ZBCM,Allianz Bank Financial Advisors S.p.A. Centro di Promozione Finanziaria,bank,45.4588362,9.1897576,5.0,3.0,,"Piazza Erculea, 15/terzo piano, Milano","bank,finance,point_of_interest,establishment",OPERATIONAL,milan,2026-02-06T15:16:13.084916
ChIJIwL0lHzBhkcRpN_i1oJMZuU,Allianz Bank Financial Advisors S.p.A.,bank,45.4598762,9.1896381,,,,"Piazza Velasca, 5, Milano","bank,finance,point_of_interest,establishment",OPERATIONAL,milan,2026-02-06T15:16:13.084922
ChIJ1-2Qp6nGhkcR1AXkbgGLiDU,Crédit Agricole Italia,bank,45.460277,9.190254999999999,3.1,15.0,,"Piazza Velasca, 4, Milano","bank,atm,insurance_agency,finance,health,point_of_interest,establishment",OPERATIONAL,milan,2026-02-06T15:16:13.084927
ChIJJeI5W6nGhkcR7szShYIa958,Sempione S.I.M. Spa,bank,45.4620834,9.189514599999999,,,,"Via Maurizio Gonzaga, 2, Milano","bank,atm,finance,point_of_interest,establishment",OPERATIONAL,milan,2026-02-06T15:16:13.084932
ChIJTWarP6rGhkcRuKAoF2KnsN4,Unione Gestioni S.I.M. Banche Pop.It.Att. Di Gestione Spa,bank,45.4595958,9.186714700000001,1.0,1.0,,"Via Amedei, 4, Milano","bank,atm,finance,point_of_interest,establishment",OPERATIONAL,milan,2026-02-06T15:16:13.084937
ChIJsUZCF6rGhkcREXIJp61q-I4,"Arab Banking Corporation SA, Milan Branch",bank,45.4590795,9.1870453,4.3,3.0,,"Via Amedei, 8, Milano","bank,atm,finance,point_of_interest,establishment",OPERATIONAL,milan,2026-02-06T15:16:13.084942
ChIJYRBuYanGhkcRV4dz0Zh37TY,UniCredit,bank,45.46014479999999,9.1883763,3.6,134.0,,"Corso Italia, 1, Milano","bank,finance,point_of_interest,establishment",OPERATIONAL,milan,2026-02-06T15:16:13.084947
ChIJb5ND1RnHhkcRaKvwdDtBGrw,Allianz Bank Financial Advisors S.p.A,bank,45.4592061,9.187313699999999,,,,"Via Amedei, 15/Terzo Piano, Milano","bank,accounting,finance,point_of_interest,establishment",OPERATIONAL,milan,2026-02-06T15:16:13.084952
ChIJT8-owanGhkcRzcOUxcNur0g,Colautti Stefano,bank,45.4589065,9.189457899999999,,,,"Piazza Erculea, 15, Milano","bank,accounting,finance,point_of_interest,establishment",OPERATIONAL,milan,2026-02-06T15:16:13.084957
ChIJoRLdslrHhkcR5K2qsg1aWlo,Banca Generali Private - Succursale,bank,45.45995629999999,9.187897499999998,5.0,1.0,,"Corso Italia, 6, Milano","bank,finance,point_of_interest,establishment",OPERATIONAL,milan,2026-02-06T15:16:13.084961
ChIJkSmLnbrHhkcRKAO7tujRA-8,Sviluppo reti immobiliari Lombardia,bank,45.4600976,9.1883441,5.0,1.0,,"Corso Italia, 01, Piano secondo","university,bank,finance,point_of_interest,establishment",OPERATIONAL,milan,2026-02-06T15:16:13.084967
ChIJ-QHfeiXHhkcR2gGtQVR4oec,Consulente Finanziario Milano - Vacis Silvia,bank,45.4586569,9.1902062,,,,"Piazza Erculea, 9, Milano","bank,finance,point_of_interest,establishment",OPERATIONAL,milan,2026-02-06T15:16:13.084971
ChIJy9W5GajGhkcRPtP9eEPN_3E,Venturini Luca Maria,bank,45.4581944,9.1921262,,,,"Corso di Porta Romana, 46, Milano","bank,finance,point_of_interest,establishment",OPERATIONAL,milan,2026-02-06T15:16:13.211938
ChIJK7N9pKnGhkcR2QcTHkbrWWE,Allianz Bank Financial Advisors Spa,bank,45.4596128,9.1910265,3.0,2.0,,"Piazza Velasca, 7, Milano","bank,finance,point_of_interest,establishment",OPERATIONAL,milan,2026-02-06T15:16:13.211967
ChIJaxVwkrzHhkcRFj-5p3S2k2E,Fineco,bank,45.45963239999999,9.1904211,5.0,3.0,,"Piazza Velasca, 10, Milano","bank,finance,point_of_interest,establishment",OPERATIONAL,milan,2026-02-06T15:16:13.211978
ChIJtfRnAanGhkcRVyf8kVuaOwI,BNL BNP Paribas,bank,45.4603052,9.1909216,3.1,21.0,,"Via Pantano, 2, Milano","bank,atm,finance,point_of_interest,establishment",OPERATIONAL,milan,2026-02-06T15:16:13.211987
ChIJhaUVEKnGhkcRaZ7yurCCCMk,CARTE CREDITO RICARICABILI NUMERI IN RILIEVO,bank,45.460955,9.190549,,,,"Via Maffeo Bagarotti, Milano","bank,finance,point_of_interest,establishment",OPERATIONAL,milan,2026-02-06T15:16:13.211997
ChIJG3dWjsfHhkcRJw93gPn2cjM,Crédit Agricole Italia,bank,45.46194029999999,9.193634500000002,3.4,7.0,,"Via Larga, 7, Milano","bank,atm,insurance_agency,health,finance,point_of_interest,establishment",OPERATIONAL,milan,2026-02-06T15:16:13.212005
ChIJ7dt1PanGhkcRx0XokC4bi_w,Banca Popolare di Bari,bank,45.4618478,9.190224400000002,1.4,32.0,,"Via Flavio Baracchini, 2, Milano","bank,atm,finance,point_of_interest,establishment",OPERATIONAL,milan,2026-02-06T15:16:13.212014
ChIJd_xLtqjGhkcRritRjKSnAv0,Credito Valtellinese,bank,45.462014,9.1932828,,,,"Via Sant'Antonio, Milano","bank,finance,point_of_interest,establishment",OPERATIONAL,milan,2026-02-06T15:16:13.212022
ChIJ1z0xPt_HhkcRvNtQE9n5YxA,Banco BPM,bank,45.4604905,9.188849900000001,1.4,20.0,,"Piazza Giuseppe Missori, 3, Milano","bank,atm,finance,point_of_interest,establishment",OPERATIONAL,milan,2026-02-06T15:16:13.212030
ChIJcwbPS6HGhkcR7wcmKj88Lco,BNL BNP Paribas,bank,45.4618644,9.2000704,1.7,11.0,,"Via Carlo Freguglia, 1, Milano","bank,atm,finance,point_of_interest,establishment",OPERATIONAL,milan,2026-02-06T15:16:13.913150
ChIJxbWb26PGhkcRSehSzvjnXW4,Banco BPM,bank,45.4621297,9.202401499999999,2.6,9.0,,"Corso di Porta Vittoria, 28, Milano","bank,atm,finance,point_of_interest,establishment",OPERATIONAL,milan,2026-02-06T15:16:13.913181
ChIJ9Z6fOZ_GhkcREvk6Vs6QigE,Banca Sella S.p.A,bank,45.4605875,9.207527200000001,2.5,13.0,,"Viale Monte Nero, 71, Milano","bank,finance,point_of_interest,establishment",OPERATIONAL,milan,2026-02-06T15:16:14.052953
ChIJb9imN5_GhkcR0Vvu0N8lRQU,"ING Arancio Store Milano Viale Monte Nero, 71",bank,45.4606882,9.207492799999999,4.1,264.0,,"Viale Monte Nero, 71, Milano","bank,finance,point_of_interest,establishment",OPERATIONAL,milan,2026-02-06T15:16:14.052981
ChIJfbWoNh_EhkcRUdGp-CW6JG8,UniCredit,bank,45.46208439999999,9.206294,2.1,37.0,,"Corso di Porta Vittoria, 58, Milano","bank,finance,point_of_interest,establishment",OPERATIONAL,milan,2026-02-06T15:16:14.052991
ChIJJWgoap_GhkcRTZP7nrGe7lQ,ZURICH Bank,bank,45.46019829999999,9.2069017,,,,"Viale Regina Margherita, 24, Milano","bank,finance,point_of_interest,establishment",OPERATIONAL,milan,2026-02-06T15:16:14.053002
ChIJ-TsHaZ_GhkcR7BQasbjCjMs,Credem Banca,bank,45.4603433,9.206919899999999,4.8,5.0,,"Viale Regina Margherita, 26, Milano","bank,atm,finance,point_of_interest,establishment",OPERATIONAL,milan,2026-02-06T15:16:14.053011
ChIJM5LN6bnFhkcRI3wDmhKHpXU,Banco BPM,bank,45.4606073,9.208014700000001,1.0,4.0,,"Viale Monte Nero, 74, Milano","bank,atm,finance,point_of_interest,establishment",OPERATIONAL,milan,2026-02-06T15:16:14.053019
ChIJSxIjMJ_GhkcRmHq_o-CXPGI,BANCA POPOLARE DI LOO,bank,45.4607161,9.2079851,,,,"Via Augusto Anfossi, Milano","bank,finance,point_of_interest,establishment",OPERATIONAL,milan,2026-02-06T15:16:14.053027
ChIJq6MWJZnGhkcRIFEDAJDR5o4,Argenta All Day,bank,45.4618072,9.209726400000001,,,,Italy,"bank,finance,point_of_interest,establishment",OPERATIONAL,milan,2026-02-06T15:16:14.053036
ChIJUShrWZnGhkcRjRERkAeZ4ac,BPER Banca,bank,45.4617294,9.2116447,1.6,18.0,,"Piazza Santa Maria del Suffragio, 4, Milano","bank,atm,insurance_agency,finance,point_of_interest,establishment",OPERATIONAL,milan,2026-02-06T15:16:14.190712
ChIJrQy0vZvGhkcR0BtFlO05950,Banca Monte dei Paschi di Siena S.p.A,bank,45.46197949999999,9.2144381,2.7,42.0,,"Via Cadore, 2, Milano","bank,finance,point_of_interest,establishment",OPERATIONAL,milan,2026-02-06T15:16:14.190744
ChIJcfKruZvGhkcRT3UmMe-VEWI,Intesa Sanpaolo S.p.A.,bank,45.4624193,9.214197,2.1,58.0,,"Corso Ventidue Marzo, 29, Milano","bank,atm,finance,point_of_interest,establishment",OPERATIONAL,milan,2026-02-06T15:16:14.190755
ChIJSbK6wSLHhkcR-e4QfRKhcRY,Banco BPM,bank,45.4623213,9.2186716,1.0,6.0,,"Corso Ventidue Marzo, 41, Milano","bank,atm,finance,point_of_interest,establishment",OPERATIONAL,milan,2026-02-06T15:16:14.316453
ChIJUVdfEofGhkcR0ufs8z7MX-4,Credem Banca,bank,45.4620192,9.2276683,1.6,22.0,,"Via Annibale Grasselli, 19, Milano","bank,atm,finance,point_of_interest,establishment",OPERATIONAL,milan,2026-02-06T15:16:14.523537
ChIJZ4A-xIbGhkcRehQ4UiGkKXc,Comavicola Commerciale Avicola (S.P.A.),bank,45.46055969999999,9.225243899999999,3.9,13.0,,"Via Giovanni Battista Piranesi, 6, Milano","bank,finance,food,point_of_interest,establishment",OPERATIONAL,milan,2026-02-06T15:16:14.523566
ChIJkTg9YIbGhkcRsIgYGctNRxo,Fineco,bank,45.4622937,9.225192099999997,1.7,12.0,,"Viale Corsica, 5, Milano","bank,atm,finance,point_of_interest,establishment",OPERATIONAL,milan,2026-02-06T15:16:14.523577
ChIJTZgkpC_HhkcRMi51CulqDY8,Banco BPM,bank,45.462341,9.227352100000001,2.3,35.0,,"Viale Corsica, 31, Milano","bank,atm,finance,point_of_interest,establishment",OPERATIONAL,milan,2026-02-06T15:16:14.523594
ChIJV3e0yHzGhkcRhwqS3R9SZtg,Banca Popolare di Sondrio SpA,bank,45.4622687,9.234062500000002,2.7,12.0,,"VIA PRIVATA SANREMO ANGOLO, Viale Corsica, 81, Milano","bank,finance,point_of_interest,establishment",OPERATIONAL,milan,2026-02-06T15:16:14.642750
ChIJWVOVL3HHhkcRrapIO_8-3zU,Crédit Agricole Italia,bank,45.46249359999999,9.2310536,3.0,14.0,,"Viale Corsica, 55, Milano","bank,atm,insurance_agency,finance,health,point_of_interest,establishment",OPERATIONAL,milan,2026-02-06T15:16:14.642785
ChIJZQ3PL3HGhkcRbZtQLcHrgnI,Federazione Lombarda delle Banche di Credito Cooperativo,bank,45.4590049,9.2436361,4.5,2.0,,"Via Decorati Al Valor Civile, 15, Milano","bank,atm,finance,point_of_interest,establishment",OPERATIONAL,milan,2026-02-06T15:16:14.750177
ChIJTQzPL3HGhkcR5e-FBbPCWtY,Conitcoop Consorzio Italiano Cooperativo Societa' Cooperativa A R.L.,bank,45.4588457,9.243735599999999,1.0,1.0,,"Via Decorati Al Valor Civile, 15, Milano","bank,finance,point_of_interest,establishment",OPERATIONAL,milan,2026-02-06T15:16:14.750213
ChIJ_0Pl-f7phkcRJW45mKXYqgo,UniCredit,bank,45.4630355,9.087150700000002,3.2,40.0,,"Piazza Anita Garibaldi, 13, Milano","bank,finance,point_of_interest,establishment",OPERATIONAL,milan,2026-02-06T15:16:15.805220
ChIJNdMckxLBhkcRBt7feVUvddM,Banco BPM,bank,45.4629824,9.134181000000002,1.3,4.0,,"Via Vincenzo Giordano Orsini, 18, Milano","bank,atm,finance,point_of_interest,establishment",OPERATIONAL,milan,2026-02-06T15:16:16.838448
ChIJ7U3oxXjBhkcR2VtqpZnisRU,UniCredit,bank,45.4659558,9.1374561,3.5,82.0,,"Viale Aretusa, 37, Milano","bank,finance,point_of_interest,establishment",OPERATIONAL,milan,2026-02-06T15:16:16.962778
ChIJRY4oNXrBhkcRDc0aiAXLjaM,Deutsche Bank Easy,bank,45.4644831,9.1364314,2.5,17.0,,"Piazzale Siena, 18, Milano","bank,insurance_agency,finance,point_of_interest,establishment",OPERATIONAL,milan,2026-02-06T15:16:16.962807
ChIJzRIUvX7BhkcRxYtv3flV5vc,Intesa Sanpaolo S.p.A.,bank,45.46541329999999,9.142465600000001,2.1,51.0,,"Via Antonello da Messina, 24, Milano","bank,atm,finance,point_of_interest,establishment",OPERATIONAL,milan,2026-02-06T15:16:17.265764
ChIJF2W4N87BhkcRX6BG4S0tccY,Banca Popolare di Sondrio SpA,bank,45.46544799999999,9.145145800000002,,,,"Via Antonio Tolomeo Trivulzio, 15, Milano","bank,finance,point_of_interest,establishment",OPERATIONAL,milan,2026-02-06T15:16:17.265793
ChIJk5SpB3fBhkcRsz1JHS16Ows,LENET Group Milano,bank,45.4625642,9.1473502,,,,"Via Marostica, 1, Milano","bank,finance,point_of_interest,establishment",OPERATIONAL,milan,2026-02-06T15:16:17.265802
ChIJB9MilXzBhkcRR0yDxiiCdoU,Advice Center IWBank Private Investments,bank,45.46511410000001,9.1472668,1.0,1.0,,"Via Giuseppe Frua, 24, Milano","bank,atm,finance,point_of_interest,establishment",OPERATIONAL,milan,2026-02-06T15:16:17.265812
ChIJI-PBOlzBhkcRMfl7ufTGSRk,Intesa Sanpaolo S.p.A.,bank,45.4668321,9.150445,1.4,48.0,,"Piazza de Angeli Ernesto, 2, Milano","bank,atm,finance,point_of_interest,establishment",OPERATIONAL,milan,2026-02-06T15:16:17.405690
ChIJX0DfVnvBhkcR4h2aubOOy70,Mediobanca Premier,bank,45.466276,9.148894799999999,2.6,44.0,,"Piazza de Angeli Ernesto, 7, Milano","bank,atm,finance,point_of_interest,establishment",OPERATIONAL,milan,2026-02-06T15:16:17.405729
ChIJeT6PanrBhkcR7kdN3kVjABA,"Banco Desio - Filiale di Milano, piazza De Angeli 7/9",bank,45.46622780000001,9.1489003,2.4,8.0,,"Piazza de Angeli Ernesto, 7, Milano","bank,finance,point_of_interest,establishment",OPERATIONAL,milan,2026-02-06T15:16:17.405739
ChIJ-fd0Y2PBhkcRGBvw1L5hpHE,Finconsumo Banca Spa,bank,45.465398,9.151451699999999,,,,"Via Luigi Sacco, 6, Milano","bank,finance,point_of_interest,establishment",OPERATIONAL,milan,2026-02-06T15:16:17.405747
ChIJMUoBWnvBhkcR75k6tLHei5w,Banca Popolare di Sondrio SpA,bank,45.4662922,9.148573700000002,2.3,3.0,,"PIAZZA DE ANGELI ERNESTO 9, Milano","bank,finance,point_of_interest,establishment",OPERATIONAL,milan,2026-02-06T15:16:17.405757
ChIJ1yJ5PYLBhkcRIXbv-h-KySw,Deutsche Bank,bank,45.4661954,9.149643200000002,1.7,29.0,,"Via Privata dei Martinitt, 3, Milano","bank,finance,point_of_interest,establishment",OPERATIONAL,milan,2026-02-06T15:16:17.405765
ChIJe0aWb3vBhkcRBpEGyx-d8G4,Banca Sella S.p.A,bank,45.4667649,9.147489499999999,3.3,20.0,,"Via Parmigianino, 13/15, Milano","bank,finance,point_of_interest,establishment",OPERATIONAL,milan,2026-02-06T15:16:17.405772
ChIJEz6MsnzBhkcR9Aq8B8v2krE,"ING - Arancio Store Milano - Via Trivulzio, 2 (Piazza de Angeli)",bank,45.466599,9.148375300000001,3.3,50.0,,"Via Antonio Tolomeo Trivulzio, 2, Milano","bank,finance,point_of_interest,establishment",CLOSED_TEMPORARILY,milan,2026-02-06T15:16:17.405789
ChIJORMJn5LBhkcRnRy6BaTLSyQ,Findomestic Banca - Milano - De Angeli,bank,45.46685679999999,9.1482378,3.8,18.0,,"Via Vittoria Colonna, 53, Milano","bank,finance,point_of_interest,establishment",OPERATIONAL,milan,2026-02-06T15:16:17.405797
ChIJZ8uBuWbBhkcRRMPqixMyd_Q,SimCorp Italiana,bank,45.4662419,9.156377099999998,4.8,6.0,,"Via Monferrato, 1, Milano","bank,finance,point_of_interest,establishment",OPERATIONAL,milan,2026-02-06T15:16:17.513471
ChIJXVYQtV3BhkcRV0S5NopJD5s,Fineco,bank,45.466138,9.163596,3.6,16.0,,"Corso Vercelli, 7, Milano","bank,insurance_agency,finance,point_of_interest,establishment",OPERATIONAL,milan,2026-02-06T15:16:17.631165
ChIJI-PBOlzBhkcRNw4ICyVXmbo,Intesa Sanpaolo S.p.A.,bank,45.4662415,9.161527,2.6,43.0,,"Corso Vercelli, 25, Milano","bank,atm,finance,point_of_interest,establishment",OPERATIONAL,milan,2026-02-06T15:16:17.631236
ChIJ2zlSSFzBhkcRDTFHlcy1n0c,UniCredit,bank,45.4660764,9.164656299999999,3.7,52.0,,"Corso Vercelli, 1, Milano","bank,finance,point_of_interest,establishment",OPERATIONAL,milan,2026-02-06T15:16:17.631249
ChIJ81zwOGfBhkcRpCFBXTbwiLo,BNL Gruppo BNP Paribas,bank,45.4659586,9.159316600000002,2.8,10.0,,"Via Domenico Cimarosa, 3, Milano","bank,atm,finance,point_of_interest,establishment",OPERATIONAL,milan,2026-02-06T15:16:17.631258
ChIJOcdJK7bshkcRCoZ3Vloc_fc,CECOP Italia,bank,45.4645333,9.1680779,4.8,8.0,,"Via Matteo Bandello, 5, Milano","bank,finance,health,point_of_interest,establishment",OPERATIONAL,milan,2026-02-06T15:16:17.739644
ChIJ46NK-6zGhkcRJFkmlBZrRJI,UniCredit,bank,45.46631989999999,9.175647300000001,3.2,60.0,,"Via Giosuè Carducci, 10, Milano","bank,finance,point_of_interest,establishment",OPERATIONAL,milan,2026-02-06T15:16:17.900240
ChIJ2fkHAFHBhkcRJtuz70UDfi4,Crédit Agricole Italia,bank,45.466317,9.175701000000002,3.7,3.0,,"Via Vincenzo Monti, 2, Milano","bank,atm,insurance_agency,health,finance,point_of_interest,establishment",OPERATIONAL,milan,2026-02-06T15:16:17.900280
ChIJyXGHtlHBhkcRfr4ubMEUKTA,Intesa Sanpaolo Private Banking S.p.A.,bank,45.46619399999999,9.176955499999998,3.4,5.0,,"Corso Magenta, 32, Milano","bank,finance,point_of_interest,establishment",OPERATIONAL,milan,2026-02-06T15:16:17.900291
ChIJz1vWlzTBhkcRxDEK6eyrt80,Banca Popolare di Sondrio SpA,bank,45.4630113,9.1771161,3.3,7.0,,"Largo Fra Agostino Gemelli, 1, Milano","bank,finance,point_of_interest,establishment",OPERATIONAL,milan,2026-02-06T15:16:17.900301
ChIJqyRLtGXBhkcRT3hGwzbl4yQ,Crédit Agricole Italia,bank,45.4651973,9.1736687,2.6,18.0,,"Via Aristide de Togni, 4, Milano","bank,atm,insurance_agency,health,finance,point_of_interest,establishment",OPERATIONAL,milan,2026-02-06T15:16:17.900310
ChIJY7IKQVHBhkcRvnbYFFF-9qw,Faggioni Marco,bank,45.4650078,9.1767953,5.0,1.0,,"Via Sant'Agnese, 12, Milano","bank,finance,point_of_interest,establishment",OPERATIONAL,milan,2026-02-06T15:16:17.900320
ChIJqS6n_lDBhkcR-8nLzVxA1kQ,"Banco Desio - Filiale di Milano Cadorna, largo Paolo D'Ancona 1/8 (ang. c.so Magenta)",bank,45.4660387,9.1752671,4.7,3.0,,"Largo Paolo d’Ancona, Corso Magenta, 1/8, Milano","bank,finance,point_of_interest,establishment",OPERATIONAL,milan,2026-02-06T15:16:17.900328
ChIJVVVFQ1DBhkcRqJmwqjzbQ4c,BPMilano,bank,45.4669578,9.1746964,2.0,2.0,,"Via Vincenzo Monti, 8, Milano","bank,finance,point_of_interest,establishment",OPERATIONAL,milan,2026-02-06T15:16:17.900337
ChIJC_UUrKzGhkcRXS5NR-kgcIo,Banca Popolare di Sondrio SpA,bank,45.46360819999999,9.183663899999999,2.6,24.0,,"Via Santa Maria Fulcorina, 1, Milano","bank,atm,finance,point_of_interest,establishment",OPERATIONAL,milan,2026-02-06T15:16:18.033132
ChIJaaKzp9hqgEcRKFcpNP37dkE,Intesa Sanpaolo Private Banking,bank,45.4634833,9.1822492,5.0,1.0,,"Piazza Borromeo, 12, Milano","bank,finance,point_of_interest,establishment",OPERATIONAL,milan,2026-02-06T15:16:18.033160
ChIJQRipNanGhkcRiPghCn3l-D8,Banca Progetto S.p.A. in A.S.,bank,45.46372909999999,9.1839132,3.5,121.0,,"Via Bocchetto, 6, Milano","bank,finance,point_of_interest,establishment",OPERATIONAL,milan,2026-02-06T15:16:18.033171
ChIJ4y8qTFPBhkcRMRDe54A6BTQ,BCC Milano filiale di Milano - Piazza Affari,bank,45.4648417,9.1828111,4.0,7.0,,"Piazza degli Affari, 5, Milano","bank,finance,point_of_interest,establishment",OPERATIONAL,milan,2026-02-06T15:16:18.033180
ChIJG0qurqzGhkcR10_UXLi3MxY,Intesa Sanpaolo S.p.A.,bank,45.4637639,9.1842523,3.8,10.0,,"Via Bocchetto, 13, Milano","bank,atm,finance,point_of_interest,establishment",OPERATIONAL,milan,2026-02-06T15:16:18.033189
ChIJ0xryCDHohkcR46VCGfkdUpw,Emilia Romagna Factor Spa,bank,45.4651927,9.1838839,,,,"Via Gaetano Negri, 10, Milano","bank,finance,point_of_interest,establishment",OPERATIONAL,milan,2026-02-06T15:16:18.033197
ChIJneH16qzGhkcRdmU4DBumZUc,Banca d'Italia,bank,45.4644364,9.185376199999999,4.3,87.0,,"Via Cordusio, 5, Milano","bank,finance,point_of_interest,establishment",OPERATIONAL,milan,2026-02-06T15:16:18.033205
ChIJv_cfSFPBhkcRNZhNhseNhL0,"BANCO DESIO – Filiale di Milano Affari, via della Posta 8/10",bank,45.4644779,9.183541900000002,3.6,8.0,,"10, Via della Posta, 8, Milano","bank,finance,point_of_interest,establishment",OPERATIONAL,milan,2026-02-06T15:16:18.033215
ChIJFasgWVPBhkcRW8CVqFqqjlc,Abe Clearing S.A.S.,bank,45.46367309999999,9.182516899999998,5.0,1.0,,"Piazza Borromeo, 10, Milano","bank,atm,finance,point_of_interest,establishment",OPERATIONAL,milan,2026-02-06T15:16:18.033229
ChIJPUcEYKzGhkcRl5-WWc_4948,Cariparma Crédit Agricole,bank,45.464458,9.186135,2.8,38.0,,"Via Armorari, 4, Milano","bank,atm,insurance_agency,finance,health,point_of_interest,establishment",OPERATIONAL,milan,2026-02-06T15:16:18.033239
ChIJDWD2aFPBhkcRHwp7yaFNBdk,Meliorbanca,bank,45.4652371,9.183785,1.0,7.0,,"Via Gaetano Negri, 10, Milano","bank,finance,point_of_interest,establishment",OPERATIONAL,milan,2026-02-06T15:16:18.033247
ChIJ5Tf_JK3GhkcRkIYKoAmiO8A,Bmn S.r.l.,bank,45.4656825,9.185239599999997,,,,"Via Santa Maria Segreta, 6, Milano","bank,finance,point_of_interest,establishment",OPERATIONAL,milan,2026-02-06T15:16:18.033255
ChIJbZSu5GrBhkcRLEwJYRzY1_U,Banca Popolare di Sondrio SpA,bank,45.463883,9.1833113,,,,"Via Meravigli, 9/B, Milano","bank,finance,point_of_interest,establishment",OPERATIONAL,milan,2026-02-06T15:16:18.033263
ChIJBQD7v63GhkcR99vMowQ5nFs,Allfunds Bank SA,bank,45.46372909999999,9.1839132,1.4,20.0,,"Via Bocchetto, 6, Milano","bank,atm,finance,point_of_interest,establishment",OPERATIONAL,milan,2026-02-06T15:16:18.033272
ChIJ1wZB4KjGhkcRzMk9uetLLqw,Deutsche Bank,bank,45.466142,9.186096,2.2,39.0,,"Via San Prospero, 2, Milano","bank,finance,point_of_interest,establishment",OPERATIONAL,milan,2026-02-06T15:16:18.694810
ChIJdVE6MKzGhkcR1cR4aXD3a7I,BANCA CESARE PONTI SEDE DI MILANO,bank,45.4648737,9.188782600000001,4.0,43.0,,"Piazza del Duomo, 19, Milano","bank,atm,insurance_agency,finance,point_of_interest,establishment",OPERATIONAL,milan,2026-02-06T15:16:18.694847
ChIJhwm0BwLEhkcRDjqqkPG3n4E,Allianz Bank Financial Advisors S.p.A.,bank,45.46404039999999,9.1882168,4.0,2.0,,"Via Orefici, 2, Milano","bank,finance,point_of_interest,establishment",OPERATIONAL,milan,2026-02-06T15:16:18.694858
ChIJ7wgcAKzGhkcRNb9Wxv4wvrE,Banca Reale,bank,45.4628094,9.189059199999997,2.8,5.0,,"Via Gaetano Giardino, 4, Milano","bank,finance,point_of_interest,establishment",OPERATIONAL,milan,2026-02-06T15:16:18.694868
ChIJkYyBra7GhkcRr79YyjzjGkE,Intesa Sanpaolo Bank,bank,45.46289460000001,9.189776899999998,2.3,79.0,,"Via G. Marconi, Piazza Diaz, Milano","bank,atm,finance,point_of_interest,establishment",OPERATIONAL,milan,2026-02-06T15:16:18.694876
ChIJOUqNW6zGhkcRSwdyqDUoPpU,FININT,bank,45.4645806,9.1872854,,,,"Via Orefici, Milano","bank,finance,point_of_interest,establishment",OPERATIONAL,milan,2026-02-06T15:16:18.694885
ChIJ07TsRKzGhkcRgvBgwFoHJlw,Banco BPM,bank,45.464568,9.1876163,2.3,27.0,,"Piazza dei Mercanti, 9, Milano","bank,atm,finance,point_of_interest,establishment",OPERATIONAL,milan,2026-02-06T15:16:18.694893
ChIJHef5uFLBhkcRP0Kx6Oyy2ns,Banca Patrimoni Sella & C.,bank,45.46529990000001,9.188019299999999,5.0,5.0,,"Via Santa Margherita, 4, Milano","bank,finance,point_of_interest,establishment",OPERATIONAL,milan,2026-02-06T15:16:18.694902
ChIJqQ_nqK_GhkcRpC07me7mcWE,Monte Service S.R.L.,bank,45.4650893,9.193389900000001,,,,"Via Agnello, 2, Milano","bank,finance,point_of_interest,establishment",OPERATIONAL,milan,2026-02-06T15:16:18.838362
ChIJu1q_Jq_GhkcRx6dt1bxy01g,Arnia Fiduciaria,bank,45.4635772,9.1922964,,,,"Piazza del Duomo, 16, Milano","atm,bank,finance,point_of_interest,establishment",OPERATIONAL,milan,2026-02-06T15:16:18.838391
ChIJm_rSuaXGhkcRSDEaSdfhiu8,Mediobanca Premier,bank,45.46341260000001,9.197118999999999,2.8,31.0,,"Largo Augusto, 3, Milano","bank,atm,finance,point_of_interest,establishment",OPERATIONAL,milan,2026-02-06T15:16:18.838403
ChIJ__9PPqTGhkcRDdA9asMVq68,Banca Popolare di Sondrio SpA,bank,45.46303959999999,9.199188999999999,3.6,7.0,,"Via Colonnetta, 5, Milano","bank,finance,point_of_interest,establishment",OPERATIONAL,milan,2026-02-06T15:16:18.838414
ChIJ0zms8KB0gEcRIttjoWNeMKg,INTESA SANPAOLO S.P.A. - FILIALE PRIVATI E BUSINESS,bank,45.4633512,9.1994403,5.0,1.0,,"Via Filippo Corridoni, 1, Milano","bank,atm,finance,point_of_interest,establishment",OPERATIONAL,milan,2026-02-06T15:16:18.838423
ChIJJzaAGKXGhkcRWE3hAybtrUk,Banca Ifigest Spa,bank,45.4655206,9.1979787,,,,"Via Durini, 27, Milano","bank,atm,finance,point_of_interest,establishment",OPERATIONAL,milan,2026-02-06T15:16:18.838432
ChIJy4LaTrvGhkcRaC7obk8kXCc,Banca Sistema S.p.A.,bank,45.46316600000001,9.1966402,2.6,47.0,,"Largo Augusto, 1A angolo, Via Verziere, 13, Milano","bank,finance,point_of_interest,establishment",OPERATIONAL,milan,2026-02-06T15:16:18.838440
ChIJU82maqTGhkcRNogk60rCE0w,Bankbelagroup,bank,45.4632453,9.199367,,,,"Via Filippo Corridoni, 1, Milano","bank,finance,point_of_interest,establishment",OPERATIONAL,milan,2026-02-06T15:16:18.838448
ChIJvZcoAhHHhkcR9jkUOxmHL5E,Banca Monte dei Paschi di Siena S.p.A.,bank,45.4632076,9.1940729,3.0,41.0,,"Piazza Fontana, 4, Milano","bank,finance,point_of_interest,establishment",OPERATIONAL,milan,2026-02-06T15:16:18.838457
ChIJnxljEQTEhkcRQRc_wgJfDZg,Banca Profilo Spa,bank,45.4650554,9.1995427,4.7,6.0,,"Via Cerva, 28, Milano","bank,atm,finance,point_of_interest,establishment",OPERATIONAL,milan,2026-02-06T15:16:19.048406
ChIJ87EubaTGhkcRCViYCh7Z8fI,Intesa Sanpaolo S.p.A.,bank,45.46311959999999,9.1998495,2.7,43.0,,"Via Cesare Battisti, 11, Milano","bank,atm,finance,point_of_interest,establishment",OPERATIONAL,milan,2026-02-06T15:16:19.048443
ChIJuf-G5qzGhkcRKGlZYyfmtVw,Commerzbank Ag,bank,45.4644228,9.1996252,4.0,4.0,,"Via Uberto Visconti di Modrone, 11, Milano","bank,atm,finance,point_of_interest,establishment",OPERATIONAL,milan,2026-02-06T15:16:19.048456
ChIJ7QxhK7vGhkcRUXwM9yA2krk,Banca Popolare di Sondrio SpA,bank,45.4666869,9.1993804,2.8,6.0,,"Via Cino del Duca, 12, Milano","bank,finance,point_of_interest,establishment",OPERATIONAL,milan,2026-02-06T15:16:19.048468
ChIJjWUgqKXGhkcReGL1Oj1ybPs,Ser-Fid Italiana Fiduciaria e di Revisione S.p.A.,bank,45.4644544,9.197884999999998,,,,"Via Durini, 9, Milano","bank,finance,point_of_interest,establishment",OPERATIONAL,milan,2026-02-06T15:16:19.048478
ChIJ_____6TGhkcRFghklBHvWuM,Banca Agricola Popolare di Ragusa,bank,45.4632995,9.199902300000003,4.3,6.0,,"Via Filippo Corridoni, 1, Milano","bank,atm,insurance_agency,finance,point_of_interest,establishment",OPERATIONAL,milan,2026-02-06T15:16:19.048487
ChIJhQODJaTGhkcRX5-Pt2LyLFM,Banca di Piacenza,bank,45.4625168,9.1982566,5.0,7.0,,"Corso di Porta Vittoria, 7, Milano","bank,atm,finance,point_of_interest,establishment",OPERATIONAL,milan,2026-02-06T15:16:19.048496
ChIJ0brYvG3HhkcRKk_3PKJ64NU,BANCA POPOLARE DI SONDRIO,bank,45.46262360000001,9.197429800000002,,,,"Corso di Porta Vittoria, 4, Milano","bank,finance,point_of_interest,establishment",OPERATIONAL,milan,2026-02-06T15:16:19.048504
ChIJTaOphy3HhkcRKMN9zfFjHwM,QuintoPuoi,bank,45.46325239999999,9.196528599999997,2.7,14.0,,"Largo Augusto 1A, Via Verziere, 13, Milano","bank,finance,point_of_interest,establishment",OPERATIONAL,milan,2026-02-06T15:16:19.048513
ChIJK7N7p2jHhkcR5uFYm12gQ8M,Palazzo Litta Cusini Modignani,bank,45.4646482,9.1970195,4.3,3.0,,"Corso Europa, 16, Milano","bank,finance,point_of_interest,establishment",OPERATIONAL,milan,2026-02-06T15:16:19.048522
ChIJs6zMD6XGhkcRTsm1EVRIejc,UniCredit,bank,45.4650715,9.197526,3.4,49.0,,"Galleria Strasburgo, 1, Milano","bank,finance,point_of_interest,establishment",OPERATIONAL,milan,2026-02-06T15:16:19.048531
ChIJcQkb36TGhkcR_GQcSF1YaYs,Intesa Sanpaolo S.p.A.,bank,45.4656572,9.1990591,3.0,17.0,,"Via Borgogna, 2/4, Milano","bank,atm,finance,point_of_interest,establishment",OPERATIONAL,milan,2026-02-06T15:16:19.048540
ChIJGXq2UL3GhkcR3CHHFNHgn70,Crédit Agricole Italia,bank,45.46687499999999,9.207681999999998,4.5,28.0,,"Via Macedonio Melloni, 1, Milano","bank,atm,insurance_agency,finance,health,point_of_interest,establishment",OPERATIONAL,milan,2026-02-06T15:16:19.222037
ChIJaSQKv5jGhkcRDSP6Dfs4Zeo,BNL BNP Paribas,bank,45.4624448,9.2096396,2.7,17.0,,"Corso Ventidue Marzo, 1, Milano","bank,atm,finance,point_of_interest,establishment",OPERATIONAL,milan,2026-02-06T15:16:19.222098
ChIJhSVfxpDGhkcREatAo2ux7_w,Mediobanca Premier,bank,45.4668456,9.214513100000001,2.3,42.0,,"Via Fratelli Bronzetti, 8, Milano","bank,finance,point_of_interest,establishment",OPERATIONAL,milan,2026-02-06T15:16:19.355530
ChIJoY2sp5jGhkcRIMVsJfLvExk,UniCredit,bank,45.462346,9.2156877,4.4,261.0,,"Corso Ventidue Marzo, 33, Milano","bank,finance,point_of_interest,establishment",OPERATIONAL,milan,2026-02-06T15:16:19.355584
ChIJLSYFt4fGhkcRrHFLYZp2MX0,Teleleasing - Leasing Di Telecomunicazioni E Generale Spa,bank,45.4629988,9.2275875,,,,"Via Luisa Battistotti Sassi, 11, Milano","bank,finance,point_of_interest,establishment",OPERATIONAL,milan,2026-02-06T15:16:19.530877
ChIJ7VxrLn3GhkcRRk5NX4OGMPU,Patalano Vito,bank,45.4635801,9.2314462,,,,"Via Monte Suello, 18, Milano","bank,finance,point_of_interest,establishment",OPERATIONAL,milan,2026-02-06T15:16:19.530932
ChIJ69qiWH3GhkcRmKUl_Oj1qwA,Intesa Sanpaolo S.p.A.,bank,45.4657767,9.2304543,1.9,81.0,,"Via Lomellina, 50, Milano","bank,atm,finance,point_of_interest,establishment",OPERATIONAL,milan,2026-02-06T15:16:19.657904
ChIJtagbM4TBhkcRzQ2QKn860a8,Intesa Sanpaolo S.p.A.,bank,45.46855839999999,9.1291344,2.2,64.0,,"Via Privata Celio, 1, Milano","bank,atm,finance,point_of_interest,establishment",OPERATIONAL,milan,2026-02-06T15:16:21.699327
ChIJ77oDLoTBhkcRbjLS9iR_xZU,Credem Banca,bank,45.4675405,9.130049099999999,2.6,25.0,,"Piazza Melozzo da Forlì, 11, Milano","bank,atm,finance,point_of_interest,establishment",OPERATIONAL,milan,2026-02-06T15:16:21.699361
ChIJxfm5KITBhkcRiWcYpfHHOWs,UniCredit,bank,45.4681611,9.131771400000002,3.6,94.0,,"Piazza Melozzo da Forlì, 5/A, Milano","bank,finance,point_of_interest,establishment",OPERATIONAL,milan,2026-02-06T15:16:21.699367
ChIJ2ybKYeDBhkcRie-ijsV_NT4,Banco BPM,bank,45.46690090000001,9.1450319,1.9,13.0,,"Via Rubens, 7, Milano","bank,atm,finance,point_of_interest,establishment",OPERATIONAL,milan,2026-02-06T15:16:21.894233
ChIJN3TfJCgsgUcRFDsWXEIp64U,IBL BANCA Spa - Filiale di Milano De Angeli,bank,45.4690678,9.1451374,4.8,101.0,,"Viale Daniele Ranzoni, 21, Milano","bank,insurance_agency,finance,health,point_of_interest,establishment",OPERATIONAL,milan,2026-02-06T15:16:21.894284
ChIJU4HLanrBhkcR9pkEYRlcHKo,Crédit Agricole Italia,bank,45.4690913,9.150043900000002,2.8,31.0,,"Via Carlo Ravizza, 23, Milano","bank,atm,insurance_agency,health,finance,point_of_interest,establishment",OPERATIONAL,milan,2026-02-06T15:16:22.082828
ChIJaWw7lHHBhkcRVzr-mIVcDQI,Farmafactoring,bank,45.4707742,9.151190300000001,,,,"Via Mosè Bianchi, 3, Milano","bank,finance,point_of_interest,establishment",OPERATIONAL,milan,2026-02-06T15:16:22.082864
ChIJR8HegUDBhkcR9hkO_3qOUgI,Banca di Piacenza,bank,45.46738509999999,9.1495786,,,,"Via Federico Faruffini, 2, Milano","bank,finance,point_of_interest,establishment",OPERATIONAL,milan,2026-02-06T15:16:22.082880
ChIJvSToIn3BhkcRGMhpN3YU_bY,Banco BPM,bank,45.46703759999999,9.149693300000001,1.7,17.0,,"VIA FARUFFINI ANG, P. DE, 3, Milano","bank,atm,finance,point_of_interest,establishment",OPERATIONAL,milan,2026-02-06T15:16:22.082890
ChIJr20k7mXBhkcR1b63XexKYTU,Intesa Sanpaolo S.p.A.,bank,45.4695265,9.1556884,2.0,70.0,,"Via Michelangelo Buonarroti, 22, Milano","bank,atm,finance,point_of_interest,establishment",OPERATIONAL,milan,2026-02-06T15:16:22.387030
ChIJ4wtozWXBhkcRVcB0psRZ8bc,Crédit Agricole Italia,bank,45.468064,9.155049,3.4,27.0,,"Via Michelangelo Buonarroti, 7, Milano","bank,atm,insurance_agency,finance,health,point_of_interest,establishment",OPERATIONAL,milan,2026-02-06T15:16:22.387094
ChIJ08rZwWXBhkcRqSiBl7OtV1E,UniCredit,bank,45.4694505,9.1550225,4.3,368.0,,"Via Michelangelo Buonarroti, 19, Milano","bank,finance,point_of_interest,establishment",OPERATIONAL,milan,2026-02-06T15:16:22.387107
ChIJ8dvY3KfBhkcRqzi5UIqkWLQ,Banco BPM,bank,45.467898,9.1558106,1.8,10.0,,"Piazza Riccardo Wagner, 15, Milano","bank,atm,finance,point_of_interest,establishment",OPERATIONAL,milan,2026-02-06T15:16:22.387120
ChIJBdO_afzBhkcRBI0LBd3vTlI,BPER Banca,bank,45.4686959,9.1556591,2.8,29.0,,"Piazza Riccardo Wagner, 8, Milano","bank,atm,insurance_agency,finance,point_of_interest,establishment",OPERATIONAL,milan,2026-02-06T15:16:22.387130
ChIJaWoAfvzBhkcRSewZGd_AzQA,Banca Monte dei Paschi di Siena S.p.A,bank,45.4692256,9.154198899999999,3.8,37.0,,"Via Raffaello Sanzio, 7, Milano","bank,finance,point_of_interest,establishment",OPERATIONAL,milan,2026-02-06T15:16:22.387138
ChIJUbp-G2fBhkcRuyA2dRqTkWs,Banca Popolare di Sondrio SpA,bank,45.4667631,9.158717099999997,2.4,9.0,,"Corso Vercelli, 38, Milano","bank,finance,point_of_interest,establishment",OPERATIONAL,milan,2026-02-06T15:16:22.387148
ChIJVX9Qkm_BhkcR6PV1euz-Fcg,Milano Fiduciaria Srl,bank,45.47095429999999,9.1526409,,,,"Via Correggio, 3, Milano","bank,finance,point_of_interest,establishment",OPERATIONAL,milan,2026-02-06T15:16:22.387162
ChIJNV6AWl3BhkcRfUmttdp2q5g,Zurich Bank,bank,45.4690818,9.162517600000001,4.6,9.0,,Milan,"bank,finance,point_of_interest,establishment",OPERATIONAL,milan,2026-02-06T15:16:22.509300
ChIJZ2QaWFzBhkcR94ouEmgGKpo,Banca Popolare Di Novara,bank,45.4670624,9.164994100000001,,,,Italy,"bank,finance,point_of_interest,establishment",OPERATIONAL,milan,2026-02-06T15:16:22.509348
ChIJ0dg5H8LBhkcRTqztEtmBME4,Banco BPM,bank,45.4670359,9.165021699999999,1.3,11.0,,"Via Alberto Da Giussano, 1N06, Milano","bank,atm,finance,point_of_interest,establishment",OPERATIONAL,milan,2026-02-06T15:16:22.509359
ChIJddGVIVvBhkcRsPNnVc7uNLQ,Credem Banca,bank,45.46781,9.1700289,3.4,11.0,,"Via Aurelio Saffi, 19, Milano","bank,atm,finance,point_of_interest,establishment",OPERATIONAL,milan,2026-02-06T15:16:22.633458
ChIJdaLFf0PBhkcRSiCctZ29bvM,Mediobanca Premier,bank,45.4692829,9.171626899999998,3.2,15.0,,"Via Vincenzo Monti, 34, Milano","bank,atm,finance,point_of_interest,establishment",OPERATIONAL,milan,2026-02-06T15:16:22.633495
ChIJoy2uKUXBhkcRHFvxYwBNtyI,Banca Sella S.p.A,bank,45.46937130000001,9.1709734,3.9,12.0,,"Via Vincenzo Monti, 33, Milano","bank,finance,point_of_interest,establishment",OPERATIONAL,milan,2026-02-06T15:16:22.633506
ChIJSa2yMkXBhkcRdCwZbBK70ts,Intesa Sanpaolo S.p.A.,bank,45.46897209999999,9.171247400000002,2.3,63.0,,"Via Aurelio Saffi, 6/5, Milano","bank,atm,finance,point_of_interest,establishment",OPERATIONAL,milan,2026-02-06T15:16:22.633515
ChIJY855kETBhkcRLilU81Vo6ng,Banca Popolare di Sondrio SpA,bank,45.4707257,9.1692397,5.0,3.0,,"Via Vincenzo Monti, 41, Milano","bank,finance,point_of_interest,establishment",OPERATIONAL,milan,2026-02-06T15:16:22.633525
ChIJzciDdVDBhkcRYuxQEKfkkYM,BNL BNP Paribas,bank,45.4674104,9.1735959,3.2,33.0,,"Piazza Virgilio, Milano","bank,atm,finance,point_of_interest,establishment",OPERATIONAL,milan,2026-02-06T15:16:22.633534
ChIJ06641xjBhkcRSjcgpfpcwww,MutuoMatto.it,bank,45.4676868,9.173925500000001,4.8,14.0,,"Via Giovanni Boccaccio, 11, Milano","bank,finance,point_of_interest,establishment",OPERATIONAL,milan,2026-02-06T15:16:22.633543
ChIJ1Uqyk8vBhkcRiLbrnM0v2Ko,Banca Valsabbina Milano 85,bank,45.46769299999999,9.175685999999999,4.9,51.0,,"Piazzale Luigi Cadorna, 15, Milano","bank,atm,finance,point_of_interest,establishment",OPERATIONAL,milan,2026-02-06T15:16:22.790411
ChIJp3GiJQjBhkcRvO0czpl3vNc,Banco BPM,bank,45.4680369,9.175535800000002,2.2,13.0,,"Piazzale Luigi Cadorna, 14-16, Milano","bank,atm,finance,point_of_interest,establishment",OPERATIONAL,milan,2026-02-06T15:16:22.790446
ChIJG4fKzFHBhkcR2WkbGNroURc,Banco Metakk Acquisto Oro Goldinvest,bank,45.46776029999999,9.1761074,,,,Italy,"bank,finance,point_of_interest,establishment",OPERATIONAL,milan,2026-02-06T15:16:22.790452
ChIJ3Z9ed03BhkcRUYGhhvEDsyE,List Spa,bank,45.46879029999999,9.182347999999998,4.0,4.0,,"Foro Buonaparte, 76, Milano","bank,atm,finance,point_of_interest,establishment",OPERATIONAL,milan,2026-02-06T15:16:23.436576
ChIJDSkKSq_GhkcRyiI1p0hh7Qk,Istituto Per Il Credito Sportivo,bank,45.4692848,9.1835455,,,,"Foro Buonaparte, 12, Milano","bank,atm,finance,point_of_interest,establishment",OPERATIONAL,milan,2026-02-06T15:16:23.436617
ChIJreJZlVLBhkcRssQghWvAr_A,Banco di Sardegna,bank,45.466711,9.183259000000001,2.4,21.0,,"Via Giorgio Giulini, 4, Milano","bank,atm,finance,point_of_interest,establishment",OPERATIONAL,milan,2026-02-06T15:16:23.436635
ChIJ331Vn1LBhkcReeFUbBmNWXI,Aberdeen Asset Management,bank,45.467563,9.183339199999999,,,,"Via Dante, 16, Milano","bank,finance,point_of_interest,establishment",OPERATIONAL,milan,2026-02-06T15:16:23.436642
ChIJl7rScU3BhkcRB4g88iytADg,Banca del Piemonte,bank,45.468887,9.1831137,2.6,5.0,,"Foro Buonaparte, 10/N01, Milano","bank,atm,finance,point_of_interest,establishment",OPERATIONAL,milan,2026-02-06T15:16:23.436648
ChIJAQBclFrBhkcRY8RO7OSfoVQ,Riva Reno Fiduciaria S.r.l.,bank,45.4673624,9.1859691,,,,"Via dei Bossi, 7, Milano","bank,finance,point_of_interest,establishment",OPERATIONAL,milan,2026-02-06T15:16:23.436659
ChIJqx5WibLGhkcRZgKPHNMj8gQ,Banca Caboto Spa,bank,45.4683289,9.1876611,,,,"3 Porta Giordano Dell'amore, Milano","bank,finance,point_of_interest,establishment",OPERATIONAL,milan,2026-02-06T15:16:23.567235
ChIJtQs7oq3GhkcRocPls4oysvw,Banca Prossima,bank,45.4665202,9.1877977,3.3,8.0,,"Largo Bortolo Belotti, Snc, Milano","bank,finance,point_of_interest,establishment",OPERATIONAL,milan,2026-02-06T15:16:23.567293
ChIJiah-gbLGhkcRrk8vEgYivk4,Davis & Morgan Merchant Bank S.p.A.,bank,45.4678395,9.187420199999998,2.1,16.0,,"Piazzetta Maurilio Bossi, 1, Milano","bank,finance,point_of_interest,establishment",OPERATIONAL,milan,2026-02-06T15:16:23.567307
ChIJBeq7663GhkcREWEo1GJCkKw,Intesa Sanpaolo S.p.A.,bank,45.466487,9.189381800000001,3.1,20.0,,"Via Silvio Pellico, 16 C/O Tesoreria Comune, Milano","bank,atm,finance,point_of_interest,establishment",OPERATIONAL,milan,2026-02-06T15:16:23.567316
ChIJ46NK-6zGhkcRSU2Y-mZrkKU,UniCredit,bank,45.46852090000001,9.1883923,4.0,62.0,,"Via Giuseppe Verdi, 7, Milano","bank,finance,point_of_interest,establishment",OPERATIONAL,milan,2026-02-06T15:16:23.567325
ChIJaegGOrDGhkcRY0sWPThxzyk,Biver Srl,bank,45.4678917,9.194602999999999,,,,"Via Bigli, 2, Milano","bank,finance,point_of_interest,establishment",OPERATIONAL,milan,2026-02-06T15:16:23.821125
ChIJs9L_jrHGhkcRQHCgdaShuAY,Banca di Asti - MILANO,bank,45.4684059,9.191289000000001,5.0,7.0,,"Via Alessandro Manzoni, 12, Milano","bank,atm,finance,point_of_interest,establishment",OPERATIONAL,milan,2026-02-06T15:16:23.821163
ChIJSQuEKbDGhkcRtaQYDy4TXKU,Crédit Agricole Italia,bank,45.467304,9.194035,3.4,22.0,,"Via Pietro Verri, 2, Milano","bank,atm,insurance_agency,finance,point_of_interest,health,establishment",OPERATIONAL,milan,2026-02-06T15:16:23.821174
ChIJ87fOirHGhkcRa0gzszt5y28,BPER Banca,bank,45.4685908,9.1910355,2.1,51.0,,"Via Alessandro Manzoni, 7, Milano","bank,atm,insurance_agency,finance,point_of_interest,establishment",OPERATIONAL,milan,2026-02-06T15:16:23.821184
ChIJrYOSj7HGhkcR0jkVe1Ag5Fk,Cassa Lombarda S.p.A.,bank,45.4691762,9.1919717,5.0,3.0,,"Via Alessandro Manzoni, 12/14, Milano","bank,atm,finance,point_of_interest,establishment",OPERATIONAL,milan,2026-02-06T15:16:23.821192
ChIJfRQLh7HGhkcRB_xGuSxkzWU,Credem Banca,bank,45.4692681,9.191189399999999,2.7,19.0,,"Via Andegari, 14, Milano","bank,finance,point_of_interest,establishment",OPERATIONAL,milan,2026-02-06T15:16:23.821201
ChIJAXrmyLrGhkcRiN82q8QHUjk,Fineco,bank,45.467618,9.198024,,,,"Corso Venezia, 5, Milano","bank,insurance_agency,finance,point_of_interest,establishment",OPERATIONAL,milan,2026-02-06T15:16:23.821210
ChIJj1JjHK7GhkcR3EGDdpGLIMg,Banca IMI,bank,45.4672227,9.1916137,3.0,4.0,,"Largo Raffaele Mattioli, 3, Milano","bank,atm,finance,point_of_interest,establishment",OPERATIONAL,milan,2026-02-06T15:16:23.821220
ChIJtZMVLK3GhkcRDaasY5TsE1w,Banca Finnat Euramerica,bank,45.4705867,9.193571500000001,5.0,6.0,,"Via Alessandro Manzoni, 30, Milano","bank,atm,finance,point_of_interest,establishment",OPERATIONAL,milan,2026-02-06T15:16:23.821230
ChIJD9S0tbvGhkcRn646oTiZNPk,Intesa Sanpaolo S.p.A.,bank,45.47130320000001,9.201496,1.9,21.0,,"Corso Venezia, C/O Unione Del Commercio, 49, Milano","bank,atm,finance,point_of_interest,establishment",OPERATIONAL,milan,2026-02-06T15:16:23.958402
ChIJhSdm8bLGhkcR22_-JBhNY5w,Finint Private Bank S.p.A.,bank,45.46761009999999,9.2051296,3.7,13.0,,"Corso Monforte, 52, Milano","bank,atm,finance,point_of_interest,establishment",OPERATIONAL,milan,2026-02-06T15:16:23.958435
ChIJxYdIFL3GhkcRJplqK1STOdk,Fineco,bank,45.467388,9.206106,3.3,10.0,,"Piazza del Tricolore, 2, Milano","bank,insurance_agency,finance,point_of_interest,establishment",OPERATIONAL,milan,2026-02-06T15:16:23.958447
ChIJsa5zVbrGhkcRVWUch31I4B0,Morgan Stanley Bank International Limited Milan Branch,bank,45.469066,9.1997904,4.5,2.0,,"Corso Venezia, 16, Milano","bank,atm,finance,point_of_interest,establishment",OPERATIONAL,milan,2026-02-06T15:16:23.958453
ChIJ50MAArDGhkcRU4T9Ytxt7TQ,Banca Passadore & C.,bank,45.4669925,9.1958518,4.8,5.0,,"Corso Giacomo Matteotti, 7, Milano","bank,finance,point_of_interest,establishment",OPERATIONAL,milan,2026-02-06T15:16:23.958459
ChIJrQSzHinHhkcRdn090TzK-b8,Luchi Fiduciaria,bank,45.4681449,9.200183,,,,"Via Mozart, 2, Milano","bank,finance,point_of_interest,establishment",OPERATIONAL,milan,2026-02-06T15:16:23.958466
ChIJlSJvxrrGhkcR5H4pKNQ7dbc,Redevco Italia S.R.L.,bank,45.4676277,9.1979365,,,,"Corso Venezia, 5, Milano","bank,finance,point_of_interest,establishment",OPERATIONAL,milan,2026-02-06T15:16:23.958472
ChIJfbWoNh_EhkcRhZ686819Aec,UniCredit,bank,45.4674897,9.2073768,2.4,28.0,,"Corso Concordia, 2, Milano","bank,finance,point_of_interest,establishment",OPERATIONAL,milan,2026-02-06T15:16:24.088166
ChIJL5pyoL3GhkcRQWvqjS1e_AM,Banca Popolare di Sondrio SpA,bank,45.4685841,9.2065995,3.4,11.0,,"Viale Piave, Milano","bank,atm,finance,point_of_interest,establishment",OPERATIONAL,milan,2026-02-06T15:16:24.088218
ChIJXVI1mL3GhkcRpo9mAUJXG9U,Banca Sella S.p.A,bank,45.468918,9.207138100000002,2.5,15.0,,"Viale Piave, 4, Milano","bank,finance,point_of_interest,establishment",OPERATIONAL,milan,2026-02-06T15:16:24.088228
ChIJL2A62XDHhkcRwt0dk9RxxeY,Credem Euromobiliare Private Banking - Centro Finanziario,bank,45.4672322,9.202779099999999,,,,"Corso Monforte, 34, Milano","bank,finance,point_of_interest,establishment",OPERATIONAL,milan,2026-02-06T15:16:24.088237
ChIJQZwj_JXGhkcRAhtLjfC6rpI,P A C S Milano srl,bank,45.470897,9.209460700000001,,,,"Via Felice Bellotti, 15, Milano","bank,finance,point_of_interest,establishment",OPERATIONAL,milan,2026-02-06T15:16:24.088246
ChIJ35Wv2pbGhkcR3OTi4Ks3h0s,"BANCO DESIO – Filiale di Milano, corso Indipendenza ang. via Ciro Menotti 2",bank,45.4684025,9.2135496,4.8,4.0,,"Corso Indipendenza, Via Ciro Menotti, 2, Milano","bank,finance,point_of_interest,establishment",OPERATIONAL,milan,2026-02-06T15:16:24.209723
ChIJ4QGCCHrHhkcRw7QXFNPIovU,Studio Luigi Mazzei - Consulenza sugli Investimenti,bank,45.4708851,9.2115053,,,,"Mediobanca Premier | Ufficio Consulenti Finanziari, Via Gustavo Modena, 1/A, Milano","bank,finance,point_of_interest,establishment",OPERATIONAL,milan,2026-02-06T15:16:24.209765
ChIJzxVq9Y7GhkcRa5DhiCwbdi4,Crédit Agricole Italia,bank,45.46849,9.222756,5.0,7.0,,"Piazzale Susa, 1, Milano","bank,atm,insurance_agency,health,finance,point_of_interest,establishment",OPERATIONAL,milan,2026-02-06T15:16:24.331537
ChIJt3VNOY7GhkcR6VHReIh4vF4,Banca Popolare di Milano,bank,45.4683474,9.2212563,3.3,12.0,,"Corso Plebisciti, 19, Milano","bank,atm,finance,point_of_interest,establishment",OPERATIONAL,milan,2026-02-06T15:16:24.331594
ChIJZ9LYuovGhkcRtpsvUyXTctE,BCC Milano filiale di Milano - via Sangallo,bank,45.4707576,9.228683,,,,"Via Sangallo, 19, Milano","bank,atm,insurance_agency,finance,point_of_interest,establishment",OPERATIONAL,milan,2026-02-06T15:16:24.457355
ChIJH0SRjInGhkcR32TxHFWyCmg,UniCredit,bank,45.4686211,9.2303493,2.3,75.0,,"Piazza Andrea Fusina, 2, Milano","bank,finance,point_of_interest,establishment",OPERATIONAL,milan,2026-02-06T15:16:24.457388
ChIJpUe8TYzGhkcROIP_KeyPlj4,Intesa Sanpaolo S.p.A.,bank,45.4713131,9.224187599999999,1.8,103.0,,"Viale Romagna, 20, Milano","bank,atm,finance,point_of_interest,establishment",OPERATIONAL,milan,2026-02-06T15:16:24.457394
ChIJf7xNrOfHhkcRw_u8JYmYCI8,Banco BPM,bank,45.4708225,9.232191900000002,2.2,10.0,,"VIA AMADEO, Via Illirico, 11, Milano","bank,atm,finance,point_of_interest,establishment",OPERATIONAL,milan,2026-02-06T15:16:24.565350
ChIJc9NpDQjqhkcRTWLv4kS0tWM,Compass Banca Spa,bank,45.4752129,9.1029175,4.6,244.0,,"Via Caldera, 21, Milano","bank,finance,point_of_interest,establishment",OPERATIONAL,milan,2026-02-06T15:16:25.788472
ChIJy1cp2tzBhkcR9MRimyL2p2Q,Banco BPM,bank,45.47260609999999,9.118983300000002,3.1,14.0,,"Via Novara, 101, Milano","bank,atm,finance,point_of_interest,establishment",OPERATIONAL,milan,2026-02-06T15:16:26.470602
ChIJu_cpEZDBhkcRdsGQEAazqm8,Banca Popolare di Sondrio SpA,bank,45.4733999,9.127221,4.7,6.0,,"Via Alfonso Capecelatro, 66, Milano","bank,finance,point_of_interest,establishment",OPERATIONAL,milan,2026-02-06T15:16:26.584793
ChIJnyj6E2nBhkcR8U66R3kEE5Y,Banca Popolare di Sondrio SpA,bank,45.4731543,9.159105000000002,3.1,8.0,,"Viale Belisario, 1, Milano","bank,atm,finance,point_of_interest,establishment",OPERATIONAL,milan,2026-02-06T15:16:27.017514
ChIJ_-mCgUPBhkcRfKF0NrcuEAY,Banca del Territorio Lombardo,bank,45.47173280000001,9.168318700000002,3.0,5.0,,"Via Vincenzo Monti, 54, Milano","bank,finance,point_of_interest,establishment",OPERATIONAL,milan,2026-02-06T15:16:27.248817
ChIJcbXwREfBhkcRWejU6ly-JBk,Iccrea Banca S.p.a,bank,45.4723738,9.1692815,,,,"Via Giuseppe Revere, 14, Milano","bank,atm,insurance_agency,finance,point_of_interest,establishment",OPERATIONAL,milan,2026-02-06T15:16:27.248864
ChIJDew39UzBhkcR1nw7d0k7Ww4,INTESA SANPAOLO PRIVATE BANKING S.P.A.,bank,45.4715472,9.183236800000001,1.0,2.0,,"Foro Buonaparte, 24, Milano","bank,finance,point_of_interest,establishment",OPERATIONAL,milan,2026-02-06T15:16:27.972514
ChIJy_cfja3GhkcRWSUHK3d6jjQ,Spafid S.p.A.,bank,45.4689973,9.1832447,3.0,2.0,,"Foro Buonaparte, 10, Milano","bank,finance,point_of_interest,establishment",OPERATIONAL,milan,2026-02-06T15:16:27.972555
ChIJMaOb80vBhkcR5JB-jJ14f08,Aperta Fiduciaria S.R.L.,bank,45.4733314,9.1821024,,,,"Piazzale Marengo, 6, Milano","bank,finance,point_of_interest,establishment",OPERATIONAL,milan,2026-02-06T15:16:27.972560
ChIJp_8W7EzBhkcRg2S7fMf0RZM,Credito Artigiano,bank,45.4712643,9.184062499999998,5.0,1.0,,"Via Mercato, Milano","bank,finance,point_of_interest,establishment",OPERATIONAL,milan,2026-02-06T15:16:27.972569
ChIJ1wFJcx7BhkcRjfbMLZDqENc,Banco BPM,bank,45.4719942,9.184301600000001,3.6,5.0,,"Via Pontaccio, 23, Milano","bank,atm,finance,point_of_interest,establishment",OPERATIONAL,milan,2026-02-06T15:16:27.972573
ChIJAxU1n0vBhkcRkM4_e4Wv7Cs,Clerici Daria Maddalena,bank,45.4738502,9.183321699999999,3.5,2.0,,"Corso Garibaldi, 49, Milano","bank,finance,point_of_interest,establishment",OPERATIONAL,milan,2026-02-06T15:16:27.972578
ChIJx6q7ek3BhkcRavPhREzxFCA,Intesa Sanpaolo S.p.A. - Filiale Imprese,bank,45.4687914,9.1836121,2.8,5.0,,"Via Cusani, 16, Milano","atm,bank,finance,point_of_interest,establishment",OPERATIONAL,milan,2026-02-06T15:16:27.972583
ChIJNXAcfU3BhkcRjh6l8TzgKgg,Banco BPM,bank,45.46809429999999,9.1830528,2.0,10.0,,"Largo Cairoli, 2a, Milano","bank,atm,finance,point_of_interest,establishment",OPERATIONAL,milan,2026-02-06T15:16:27.972588
ChIJK5h6RsDBhkcRIi3QiQ7CWQ4,Banca Monte dei Paschi di Siena,bank,45.4677412,9.182339599999997,3.0,62.0,,"Largo Benedetto, Largo Cairoli, 1, Milano","bank,finance,point_of_interest,establishment",OPERATIONAL,milan,2026-02-06T15:16:27.972592
ChIJ1-SxiVLBhkcRBzJN4KkUU1w,Banca Agricola Mantovana,bank,45.467355,9.181918699999999,,,,"Via San Giovanni sul Muro, 1, Milano","bank,finance,point_of_interest,establishment",OPERATIONAL,milan,2026-02-06T15:16:27.972598
ChIJTfTRqLLGhkcRh_X3VOwehfQ,Crédit Agricole Italia,bank,45.468199,9.185443000000001,3.2,5.0,,"Via Broletto, 37, Milano","bank,atm,insurance_agency,finance,health,point_of_interest,establishment",OPERATIONAL,milan,2026-02-06T15:16:28.103424
ChIJJd31EzvHhkcRAOepAvIbcVM,"UBP (Europe) S.A., Milan branch office",bank,45.46982999999999,9.187817,,,,"Via Brera, n.5, Milano","bank,finance,point_of_interest,establishment",OPERATIONAL,milan,2026-02-06T15:16:28.103483
ChIJ55FVVZrHhkcRlSdDhrwtfaU,Intesa Sanpaolo S.p.A.,bank,45.4691548,9.1888632,3.0,79.0,,"Via Giuseppe Verdi, 8, Milano","bank,atm,finance,point_of_interest,establishment",OPERATIONAL,milan,2026-02-06T15:16:28.103499
ChIJr6hvErTGhkcRW7A8mQXgj5o,Govi Spa,bank,45.472767,9.1910508,4.0,1.0,,"Via dell'Annunciata, 27, Milano","bank,finance,point_of_interest,establishment",OPERATIONAL,milan,2026-02-06T15:16:28.103508
ChIJ-Q5qLrLGhkcROHsilHq92Cw,Exetra S.p.a.,bank,45.4693985,9.190559199999997,5.0,1.0,,"Via Monte di Pietà, 12, Milano","bank,finance,point_of_interest,establishment",OPERATIONAL,milan,2026-02-06T15:16:28.103517
ChIJsXuYQ7bGhkcRD2lyO1OhmCQ,Pioneer Investment Management Sgrpa,bank,45.47333380000001,9.194771899999997,,,,"Via Filippo Turati, Milano","bank,atm,finance,point_of_interest,establishment",OPERATIONAL,milan,2026-02-06T15:16:28.235097
ChIJr-sfzsnGhkcRhJ2X5ubpljI,Crédit Agricole Italia,bank,45.4728674,9.194938799999997,3.1,14.0,,"Piazza Cavour, 3, Milano","bank,atm,insurance_agency,finance,health,point_of_interest,establishment",OPERATIONAL,milan,2026-02-06T15:16:28.235138
ChIJTWvcZbbGhkcR2CrPsLK2tPc,Aeon Trust - Societa' Italiana Trust S.R.L.,bank,45.4747909,9.1939809,,,,"Via Montebello, 39, Milano","bank,finance,point_of_interest,establishment",OPERATIONAL,milan,2026-02-06T15:16:28.235150
ChIJR8xE38nGhkcR-0lW7oCQh-4,Abn Amro Bank N.V.,bank,45.4750012,9.1944944,3.0,2.0,,"Via Filippo Turati, 9, Milano","bank,atm,finance,point_of_interest,establishment",OPERATIONAL,milan,2026-02-06T15:16:28.235157
ChIJSbvqKZvHhkcR-Heeg66vvFs,Banca Monte dei Paschi di Siena S.p.A,bank,45.4727338,9.194763899999998,3.0,19.0,,"Piazza Cavour, 1, Milano","bank,finance,point_of_interest,establishment",OPERATIONAL,milan,2026-02-06T15:16:28.235163
ChIJVVXle7HGhkcRBaGtbauhZn0,Banca Del Fucino,bank,45.4700275,9.1917936,1.0,2.0,,"Via Monte di Pietà, 24, Milano","bank,finance,point_of_interest,establishment",OPERATIONAL,milan,2026-02-06T15:16:28.235168
ChIJ_3RQKK3GhkcRQYnCIUfm0hU,Lombard Odier,bank,45.47063139999999,9.196374400000002,,,,"Via della Spiga, 30, Milano","bank,finance,point_of_interest,establishment",OPERATIONAL,milan,2026-02-06T15:16:28.235175
ChIJy3DtdbXHhkcRcvrt2o6G2xo,UBS Europe SE Succursale Italia,bank,45.4725281,9.1966992,,,,"Via del Vecchio Politecnico, 3, Milano","bank,finance,point_of_interest,establishment",OPERATIONAL,milan,2026-02-06T15:16:28.235180
ChIJTR3LHYvHhkcRP4RsptB8Vk8,UBS Fiduciaria SpA,bank,45.47253,9.1967121,5.0,1.0,,"Via del Vecchio Politecnico, 3, Milano","bank,finance,point_of_interest,establishment",OPERATIONAL,milan,2026-02-06T15:16:28.235185
ChIJC7ow4X3HhkcRw4ynYL44u4c,SHOPPING DIVA'S,bank,45.4689452,9.1942574,5.0,4.0,,"Via Monte Napoleone, 21, Milano","bank,finance,point_of_interest,establishment",OPERATIONAL,milan,2026-02-06T15:16:28.235190
ChIJNaaYh7HGhkcRDWiRb1ezZEI,Credito Emiliano,bank,45.46927300000001,9.191230100000002,,,,"Via Andegari, 14, Milano","bank,finance,point_of_interest,establishment",OPERATIONAL,milan,2026-02-06T15:16:28.235195
ChIJSc3TQlzHhkcRGtf1FVpwu5s,Credem Euromobiliare Private Banking - Filiale,bank,45.4692117,9.1911451,,,,"Via Andegari, 14, Milano","bank,finance,point_of_interest,establishment",OPERATIONAL,milan,2026-02-06T15:16:28.235200
ChIJZShwLL_GhkcRWpzZ9hG2gak,Arner Advisory Spa,bank,45.4736206,9.2044971,,,,"Corso Venezia, 54, Milano","bank,finance,point_of_interest,establishment",OPERATIONAL,milan,2026-02-06T15:16:28.378860
ChIJHxZ9wr7GhkcRCtWVCZYAVLg,Ifis Rental Services,bank,45.47273209999999,9.204953,1.3,15.0,,"Via Borghetto, 5, Milano","bank,finance,point_of_interest,establishment",OPERATIONAL,milan,2026-02-06T15:16:28.378903
ChIJyyvZaLnGhkcR6_z3uvYNHHk,Edmond De Rothschild,bank,45.47113979999999,9.2020461,4.0,4.0,,"Corso Venezia, 36, Milano","bank,atm,finance,point_of_interest,establishment",OPERATIONAL,milan,2026-02-06T15:16:28.378913
ChIJb1xlW7nGhkcRH5gdwz2PLQ8,Banca Galileo S.p.A.,bank,45.4716621,9.202526500000001,5.0,3.0,,"Corso Venezia, 40, Milano","bank,atm,finance,point_of_interest,establishment",OPERATIONAL,milan,2026-02-06T15:16:28.378919
ChIJsRgLnpHHhkcRR_wKZvEQfNg,Banca Patrimoni Sella & C.,bank,45.4716126,9.202818699999998,,,,"Corso Venezia, 40, Milano","bank,finance,point_of_interest,establishment",OPERATIONAL,milan,2026-02-06T15:16:28.378926
ChIJRyHaE4bHhkcRD7-HbiYw4i8,Banco BPM,bank,45.4720249,9.203329799999999,1.7,6.0,,"VIA SALVINI, 1 -ANG. C.SO VENE, Milano","bank,atm,finance,point_of_interest,establishment",OPERATIONAL,milan,2026-02-06T15:16:28.378933
ChIJVeHVoj_HhkcR41ugyB8On_M,Banca Popolare di Sondrio SpA,bank,45.4728462,9.203719999999999,1.0,1.0,,"Corso Venezia, 48, Milano","bank,finance,point_of_interest,establishment",OPERATIONAL,milan,2026-02-06T15:16:28.378941
ChIJNScLZgHHhkcR0H8m8bGl2yY,Nettuno Fiduciaria Srl,bank,45.4713283,9.204138400000001,,,,"Piazza Eleonora Duse, 2, Milano","bank,finance,point_of_interest,establishment",OPERATIONAL,milan,2026-02-06T15:16:28.378947
ChIJEau14-nHhkcRPD0PSpE5Et8,COFIRCONT Compagnia Fiduciaria S.r.l.,bank,45.4689285,9.1968114,5.0,1.0,,"Via Sant'Andrea, 10/A, Milano","bank,finance,point_of_interest,establishment",OPERATIONAL,milan,2026-02-06T15:16:28.378954
ChIJt9QmRVjHhkcRwIAOpH4hB8I,Banca Ifis,bank,45.47275919999999,9.204742,2.3,3.0,,"Via Borghetto, 5, Milano","bank,finance,point_of_interest,establishment",OPERATIONAL,milan,2026-02-06T15:16:28.378961
ChIJaScBZqREgEcRQInri-UZ61A,Intesa Sanpaolo Bank,bank,45.4742588,9.206781999999999,1.7,54.0,,"Piazza Guglielmo Oberdan, 4, Milano","bank,atm,finance,point_of_interest,establishment",OPERATIONAL,milan,2026-02-06T15:16:28.509901
ChIJd6wP4lTHhkcR3mmM5ApY8iE,Banco BPM,bank,45.4722282,9.2068879,3.7,7.0,,"Viale Piave, 28, Milano","bank,atm,finance,point_of_interest,establishment",OPERATIONAL,milan,2026-02-06T15:16:28.509953
ChIJnTu9GL_GhkcRxvEXZuY5trI,Banca Popolare di Sondrio SpA,bank,45.47368549999999,9.206289199999999,4.0,5.0,,"Viale Luigi Majno, 42, Milano","bank,finance,point_of_interest,establishment",OPERATIONAL,milan,2026-02-06T15:16:28.509965
ChIJ9yfKK7_GhkcRMPwCjBIYqlA,Banca Finanziaria Internazionale S.p.a. Breviter Banca Finint S.p.a.,bank,45.47358559999999,9.204471299999998,,,,"Corso Venezia, 54, Milano","bank,finance,point_of_interest,establishment",OPERATIONAL,milan,2026-02-06T15:16:28.509977
ChIJ_3fq-JTGhkcRyEGcBOE9W9c,Credem Banca,bank,45.4727901,9.2133218,1.7,42.0,,"Via Rosolino Pilo, 19/b, Milano","bank,atm,finance,point_of_interest,establishment",OPERATIONAL,milan,2026-02-06T15:16:28.631401
ChIJu819SJPGhkcRqiV5pSnaZlo,Intesa Sanpaolo S.p.A.,bank,45.4738955,9.2174327,1.9,46.0,,"Viale Abruzzi, 4, Milano","bank,atm,finance,point_of_interest,establishment",OPERATIONAL,milan,2026-02-06T15:16:28.631441
ChIJAWmMfZPGhkcRpvztLzZ8LMg,Deutsche Bank,bank,45.4727275,9.2158646,2.5,27.0,,"Viale Giustiniano, 1, Milano","bank,finance,point_of_interest,establishment",OPERATIONAL,milan,2026-02-06T15:16:28.631451
ChIJHyWb7-nHhkcRaJ_2gm6VaQ0,Avvera Mutui - Gruppo Credem,bank,45.4729712,9.213120199999999,1.0,3.0,,"Via Rosolino Pilo, 19b, Milano","bank,finance,point_of_interest,establishment",OPERATIONAL,milan,2026-02-06T15:16:28.631461
ChIJT4UD6lTHhkcRc8fIjHxnQPg,Banco BPM,bank,45.4746166,9.211726900000002,1.0,3.0,,"Viale Regina Giovanna, 25, Milano","bank,atm,finance,point_of_interest,establishment",OPERATIONAL,milan,2026-02-06T15:16:28.631470
ChIJ54ILSJXGhkcR7jufiZRZwuE,Banca Popolare di Novara,bank,45.47462540000001,9.211729000000002,,,,"Viale Regina Giovanna, 23, Milano","bank,finance,point_of_interest,establishment",OPERATIONAL,milan,2026-02-06T15:16:28.631479
ChIJx-UI_4zGhkcRNuSwLFg3TWk,Banca Popolare di Sondrio SpA,bank,45.4719182,9.224234500000001,3.4,10.0,,"Viale Romagna, 24, Milano","bank,finance,point_of_interest,establishment",OPERATIONAL,milan,2026-02-06T15:16:28.750758
ChIJB6gBAFDHhkcRo7KGS-NpPEA,Banca Monte dei Paschi di Siena S.p.A,bank,45.474429,9.219000399999999,4.9,8.0,,"Via Amedeo D'Aosta, 2, Milano","bank,finance,point_of_interest,establishment",OPERATIONAL,milan,2026-02-06T15:16:28.750779
ChIJ45rIL_XGhkcRdmsOmQT3m6w,Banca Popolare di Sondrio SpA,bank,45.4745275,9.232180899999998,4.7,3.0,,"Via Giacomo Venezian, 1, Milano","bank,finance,point_of_interest,establishment",OPERATIONAL,milan,2026-02-06T15:16:28.953240
ChIJGQFNm3TBhkcR6ypklsZXxo0,Intesa Sanpaolo S.p.A.,bank,45.4781068,9.1463995,2.0,61.0,,"Via Guglielmo Silva, 36, Milano","bank,atm,finance,point_of_interest,establishment",OPERATIONAL,milan,2026-02-06T15:16:31.116782
ChIJgyw9RS7BhkcRqSbGefHFLEM,Banca Generali Private - Succursale,bank,45.4776131,9.1561889,2.9,14.0,,"Piazza Tre Torri, 1, Milano","bank,atm,finance,point_of_interest,establishment",OPERATIONAL,milan,2026-02-06T15:16:31.319317
ChIJG6MhPWzBhkcRcxnRlnNncGs,CPC Inox S.p.A.,bank,45.4762503,9.156765,,,,"Via Senofonte, 4/A, Milano","bank,finance,point_of_interest,establishment",OPERATIONAL,milan,2026-02-06T15:16:31.319345
ChIJkRV6bGvBhkcRHkyj3tl3hdE,Banco BPM,bank,45.47798340000001,9.1605736,2.3,3.0,,"Viale Severino Boezio, 2, Milano","bank,atm,finance,point_of_interest,establishment",OPERATIONAL,milan,2026-02-06T15:16:31.319356
ChIJVRzIn0DBhkcRd-UUDCveaH4,Credem Banca,bank,45.4786651,9.1693798,2.3,54.0,,"Corso Sempione, 20, Milano","bank,atm,finance,point_of_interest,establishment",OPERATIONAL,milan,2026-02-06T15:16:32.066589
ChIJCeMO8EXBhkcRpjKn-o5MAFY,Banca Monte dei Paschi di Siena S.p.A,bank,45.4774539,9.1684743,2.3,12.0,,"Via Antonio Canova, 35/37, Milano","bank,finance,point_of_interest,establishment",OPERATIONAL,milan,2026-02-06T15:16:32.066620
ChIJj5rulkDBhkcRp0ghFVFhAaU,Banca Popolare di Sondrio SpA,bank,45.47780239999999,9.168805599999999,3.8,4.0,,"Sempione, VIA CANOVA 39 ANG. CORSO, Milano","bank,finance,point_of_interest,establishment",OPERATIONAL,milan,2026-02-06T15:16:32.066628
ChIJ9xpt3D_BhkcRP8FpxbAJu-I,Peruzzi Andrea,bank,45.4797826,9.1656462,,,,"Corso Sempione, 33, Milano","bank,finance,point_of_interest,establishment",OPERATIONAL,milan,2026-02-06T15:16:32.066635
ChIJZ-j-nMDBhkcRMwOozwB4bGc,Banco BPM,bank,45.4802396,9.1673405,2.7,25.0,,"Corso Sempione, 32-A, Milano","bank,atm,finance,point_of_interest,establishment",OPERATIONAL,milan,2026-02-06T15:16:32.066642
ChIJ_YzLHDbBhkcRO7SQY-77LZY,Fineco,bank,45.47793599999999,9.181633999999999,5.0,1.0,,"Piazzale Biancamano, 2, Milano","bank,insurance_agency,finance,point_of_interest,establishment",OPERATIONAL,milan,2026-02-06T15:16:32.261940
ChIJZ8lZeUrBhkcR6OJG7AnVi4Q,Intesa Sanpaolo S.p.A.,bank,45.4770192,9.184919299999999,2.4,51.0,,"Corso Garibaldi, 86, Milano","bank,atm,finance,point_of_interest,establishment",OPERATIONAL,milan,2026-02-06T15:16:32.261967
ChIJf-QY8zbBhkcRkQmmMOaYQsg,BTL Banca del Territorio Lombardo BCC,bank,45.4802829,9.1817365,3.3,7.0,,"Bastioni di Porta Volta, 10, Milano","bank,atm,finance,point_of_interest,establishment",OPERATIONAL,milan,2026-02-06T15:16:32.261977
ChIJ6R-cYzXBhkcRT_D-5FvH04Q,Gestioni Mobiliari E Immobiliari Spa,bank,45.47773790000001,9.186370600000002,,,,"Via della Moscova, 46, Milano","bank,finance,point_of_interest,establishment",OPERATIONAL,milan,2026-02-06T15:16:32.261986
ChIJrf1y-DXBhkcR31LWSsadOOs,Fondo Pensione Per Personale Aziende Gruppo Credito Italiano,bank,45.47759529999999,9.182845799999999,,,,"Via di Porta Tenaglia, 3, Milano","bank,finance,point_of_interest,establishment",OPERATIONAL,milan,2026-02-06T15:16:32.261995
ChIJ20GICDbBhkcRgQ3NnaAPEPM,Crédit Agricole Italia,bank,45.4780306,9.182176199999999,2.8,12.0,,"Via della Moscova, 53, Milano","bank,atm,insurance_agency,finance,health,point_of_interest,establishment",OPERATIONAL,milan,2026-02-06T15:16:32.262003
ChIJu7e7gTXBhkcRZmDXGEd3Ar0,BNL BNP Paribas,bank,45.4765538,9.1837802,3.8,32.0,,"Corso Garibaldi, 85/A, Milano","bank,atm,finance,point_of_interest,establishment",OPERATIONAL,milan,2026-02-06T15:16:32.262012
ChIJuU0bjTXBhkcRpt00wwq_BxQ,UniCredit,bank,45.47801109999999,9.1839209,2.7,52.0,,"Via della Moscova, 58, Milano","bank,finance,point_of_interest,establishment",OPERATIONAL,milan,2026-02-06T15:16:32.262021
ChIJZ8lZeUrBhkcR11vT47-OkZo,Fineco Center,bank,45.477399,9.184697,3.9,19.0,,"Corso Garibaldi, 86, Milano","bank,insurance_agency,finance,point_of_interest,establishment",OPERATIONAL,milan,2026-02-06T15:16:32.262030
ChIJ6YZY2w_BhkcRzJMyJm1W8Rc,Stefano Amadei,bank,45.4770192,9.184919299999999,,,,"Corso Garibaldi, 86, Milano","bank,finance,point_of_interest,establishment",OPERATIONAL,milan,2026-02-06T15:16:32.262037
ChIJp2r-mDXBhkcRdrZnDwp2UXE,IQOS PREMIUM PARTNER LARGO LA FOPPA - Tabaccheria De feudis,bank,45.4784481,9.184852399999999,4.1,94.0,,"Largo la Foppa, 5, Milano","bakery,bank,liquor_store,finance,food,store,point_of_interest,establishment",OPERATIONAL,milan,2026-02-06T15:16:32.262046
ChIJDYWtVbXGhkcRgk00ePj3ZuU,BPER Banca,bank,45.476878,9.1882765,2.4,43.0,,"Via della Moscova, 31a, Milano","bank,atm,insurance_agency,finance,point_of_interest,establishment",OPERATIONAL,milan,2026-02-06T15:16:32.391338
ChIJKaGiY7XGhkcRsIrc8ZXb_i8,"BANCO DESIO – Filiale di Milano, via della Moscova 30/32 ang. via San Marco 28",bank,45.4770395,9.1887841,4.6,5.0,,"Via della Moscova, 30/32, Milano","bank,finance,point_of_interest,establishment",OPERATIONAL,milan,2026-02-06T15:16:32.391372
ChIJyURuQijBhkcRgpe6LFOupnM,SIREF Fiduciaria S.p.A.,bank,45.474744,9.190817299999997,1.0,3.0,,"Via Melchiorre Gioia, 22, Milano","bank,finance,point_of_interest,establishment",OPERATIONAL,milan,2026-02-06T15:16:32.391386
ChIJ50qwac_HhkcR-IgtUELW4KU,Julius Baer Milan,bank,45.4741571,9.1912345,5.0,1.0,,"Corso di Porta Nuova, 3, Milano","bank,finance,point_of_interest,establishment",OPERATIONAL,milan,2026-02-06T15:16:32.391397
ChIJS1AxfcnGhkcREsmC3MfTQbQ,Banca Popolare di Sondrio SpA,bank,45.4797399,9.1944462,4.4,9.0,,"VIA Monte Santo Angolo, Via Galileo Galilei, 8, Milano","bank,atm,finance,point_of_interest,establishment",OPERATIONAL,milan,2026-02-06T15:16:32.534358
ChIJFbWrYsnGhkcR7OXIOUEYKuU,Banco BPM,bank,45.4799356,9.194066699999999,3.2,5.0,,"Viale Monte Santo, 8, Milano","bank,atm,finance,point_of_interest,establishment",OPERATIONAL,milan,2026-02-06T15:16:32.534382
ChIJkVerJsjGhkcRo99vokfASYk,Sanpaolo Invest Sim Spa,bank,45.47687250000001,9.1972664,1.0,1.0,,"Via Iginio Ugo Tarchetti, 5, Milano","bank,atm,finance,point_of_interest,establishment",OPERATIONAL,milan,2026-02-06T15:16:32.534389
ChIJXaKwIszGhkcRkIrk0k77Y48,MUFG Bank Milano Branch,bank,45.4750399,9.194573199999999,5.0,1.0,,"Via Filippo Turati, 9, Milano","bank,atm,finance,point_of_interest,establishment",OPERATIONAL,milan,2026-02-06T15:16:32.534397
ChIJG_nRIrbGhkcRljaZzproXIQ,Banco BPM,bank,45.4759286,9.1949782,3.3,7.0,,"Via Filippo Turati, 26, Milano","bank,atm,finance,point_of_interest,establishment",OPERATIONAL,milan,2026-02-06T15:16:32.534403
ChIJwSsJxFDHhkcRldflOWTIqbA,Cherry Bank,bank,45.4756369,9.194932699999999,5.0,1.0,,"Via della Moscova, 3, Milano","bank,finance,point_of_interest,establishment",OPERATIONAL,milan,2026-02-06T15:16:32.534410
ChIJbdzdP7bGhkcR_gEINiC5NCU,Credem Euromobiliare Private Banking - Centro Finanziario,bank,45.4750399,9.194573199999999,5.0,1.0,,"Via Filippo Turati, 9, Milano","bank,atm,finance,point_of_interest,establishment",OPERATIONAL,milan,2026-02-06T15:16:32.534416
ChIJQ_11W7bGhkcRI4_9-swhxYY,Credem Banca,bank,45.4750399,9.194573199999999,3.0,4.0,,"Via Filippo Turati, 9, Milano","bank,atm,finance,point_of_interest,establishment",CLOSED_TEMPORARILY,milan,2026-02-06T15:16:32.534422
ChIJ93CP5KzGhkcRtut99LNx8O4,Bayerische Landesbank,bank,45.4754485,9.195170599999999,5.0,1.0,,"Via della Moscova, 3, Milano","bank,atm,finance,point_of_interest,establishment",OPERATIONAL,milan,2026-02-06T15:16:32.534428
ChIJD-AJ3MnGhkcRdUzFCZYmY2E,Deutsche Bank Wealth Management,bank,45.47688400000001,9.195296899999999,3.4,5.0,,"Via Filippo Turati, 27, Milano","bank,finance,point_of_interest,establishment",OPERATIONAL,milan,2026-02-06T15:16:32.534435
ChIJ-c4QMbbGhkcR_1Aul9yFpK8,Mediocredito Busnelli Di Busnelli Marco,bank,45.4757094,9.1956432,,,,"Via della Moscova, 6/8, Milano","bank,finance,point_of_interest,establishment",OPERATIONAL,milan,2026-02-06T15:16:32.534441
ChIJeYHbxMnGhkcROtNXOEuRxcQ,BNL BNP Paribas,bank,45.4773364,9.1956599,3.2,24.0,,"Via Filippo Turati, 29, Milano","bank,atm,finance,point_of_interest,establishment",OPERATIONAL,milan,2026-02-06T15:16:32.534447
ChIJ6YsTyynTf0cR0pKaVWB7-n0,Future Vision Srl,bank,45.4777135,9.1951087,4.4,14.0,,"Via Giuseppe Parini, 2, Milano","bank,finance,real_estate_agency,point_of_interest,establishment",OPERATIONAL,milan,2026-02-06T15:16:32.534454
ChIJ45604MfGhkcRnB9H8YQmm2M,Findomestic Banca - Milano - Repubblica,bank,45.477219,9.2000887,3.7,59.0,,"Viale Vittorio Veneto, 24, Milano","bank,finance,point_of_interest,establishment",OPERATIONAL,milan,2026-02-06T15:16:32.676859
ChIJ86E94MbGhkcRgE0ouT-_mV8,Banca Valsabbina Milano 80,bank,45.4782276,9.2038083,4.3,18.0,,"Via Lodovico Settala, Milano","bank,atm,finance,point_of_interest,establishment",OPERATIONAL,milan,2026-02-06T15:16:32.676888
ChIJSdqx-MbGhkcRe0r42GdN_tE,Agenzia 2,bank,45.4786674,9.2030092,1.0,1.0,,Italy,"bank,finance,point_of_interest,establishment",OPERATIONAL,milan,2026-02-06T15:16:32.676901
ChIJWQkJksjGhkcRsVMdusCAt9U,Innocenti Merchant Bank Srl,bank,45.47940089999999,9.1988454,,,,"Piazza della Repubblica, 24, Milano","bank,atm,finance,point_of_interest,establishment",OPERATIONAL,milan,2026-02-06T15:16:32.676910
ChIJ6xCmosnGhkcR4hnpD-lFD7o,4evapic,bank,45.47836760000001,9.195606000000002,,,,"Area di parcheggio, Piazza della Repubblica, 9, Milano","bank,finance,point_of_interest,establishment",OPERATIONAL,milan,2026-02-06T15:16:32.676921
ChIJ85HfEaXGhkcRGxxr9bBgJkQ,UniCredit,bank,45.4751298,9.205296200000001,1.7,90.0,,"Corso Buenos Aires, 1, Milano","bank,finance,point_of_interest,establishment",OPERATIONAL,milan,2026-02-06T15:16:32.676930
ChIJ5XoyX8DGhkcRUHtYRE8fHrM,Mediobanca Premier,bank,45.4767823,9.208133799999999,2.0,29.0,,"Via Lazzaro Spallanzani, 15, Milano","bank,atm,finance,point_of_interest,establishment",OPERATIONAL,milan,2026-02-06T15:16:32.840737
ChIJdVCkZcDGhkcRhSfhwkZ8vBM,Crédit Agricole Italia,bank,45.476273,9.208599,4.4,48.0,,"Viale Regina Giovanna, 3, Milano","bank,atm,insurance_agency,finance,point_of_interest,health,establishment",OPERATIONAL,milan,2026-02-06T15:16:32.840761
ChIJ41resJTGhkcRdY9fi2fOe_Y,Credipass,bank,45.4781065,9.2076233,4.2,18.0,,"Via San Gregorio, 6, Milano","bank,finance,point_of_interest,establishment",OPERATIONAL,milan,2026-02-06T15:16:32.840796
ChIJFzYsi8DGhkcR-DW5of3rkUQ,Intesa Sanpaolo S.p.A.,bank,45.47665629999999,9.208029800000002,2.4,20.0,,"Piazza Santa Francesca Romana, 3, Milano","bank,atm,finance,point_of_interest,establishment",OPERATIONAL,milan,2026-02-06T15:16:32.840824
ChIJrfMdwPnHhkcRogRn-K9DVsQ,Banco BPM,bank,45.47862560000001,9.209484699999999,2.1,15.0,,"Corso Buenos Aires, 36, Milano","bank,atm,finance,point_of_interest,establishment",OPERATIONAL,milan,2026-02-06T15:16:32.840834
ChIJbwFpOO3GhkcRiWvFXc5R1k0,UniCredit,bank,45.4781077,9.2152128,2.5,68.0,,"Via Alessandro Stradella, 2, Milano","bank,finance,point_of_interest,establishment",OPERATIONAL,milan,2026-02-06T15:16:32.965936
ChIJ8UBmWZPGhkcRLiNDjmbP56E,Crédit Agricole Italia,bank,45.4770547,9.2165702,3.2,30.0,,"Via Plinio, 48, Milano","bank,atm,insurance_agency,finance,point_of_interest,health,establishment",OPERATIONAL,milan,2026-02-06T15:16:32.965977
ChIJ8UZt9sHGhkcRoxEDw0CAR9g,BNL BNP Paribas,bank,45.479768,9.210958900000001,2.2,65.0,,"Galleria Buenos Aires, 15, Milano","bank,atm,finance,point_of_interest,establishment",OPERATIONAL,milan,2026-02-06T15:16:32.965995
ChIJUzsxYdPGhkcREP86wPilBjM,Banca Popolare di Sondrio SpA,bank,45.47912280000001,9.2278598,2.6,69.0,,"Via Edoardo Bonardi, 4, Milano","bank,finance,point_of_interest,establishment",OPERATIONAL,milan,2026-02-06T15:16:33.167121
