place_id,name,type,lat,lng,rating,user_ratings_total,price_level,vicinity,types,business_status,city,collected_at
ChIJJ5LA6qTEhkcRUvwsnQDeboU,PALEXTRA SSD a.R.L.,gym,45.3964918,9.1721759,4.3,42.0,,"Via Mincio, 24, Rozzano","gym,health,point_of_interest,establishment",OPERATIONAL,milan,2026-02-06T15:09:44.557798
ChIJueqJWwDFhkcROWp8N-X2Cq4,Fit Express Milano Fiordaliso,gym,45.39310949999999,9.173854000000002,3.7,9.0,,"Via Eugenio Curiel, 25, Rozzano","gym,health,point_of_interest,establishment",OPERATIONAL,milan,2026-02-06T15:09:44.557845
ChIJE_iLwKTEhkcRKgQ26kRFUsc,Well Fit Associazione Sportiva Dilettantistica,gym,45.3964918,9.1721759,5.0,1.0,,"Via Mincio, 24/26, Rozzano","gym,health,point_of_interest,establishment",OPERATIONAL,milan,2026-02-06T15:09:44.557855
ChIJ39s2VIHFhkcRI5I7wOyx0to,GymActive,gym,45.4001102,9.1733308,5.0,38.0,,"Via Eugenio Curiel, 2, Rozzano","gym,point_of_interest,health,establishment",OPERATIONAL,milan,2026-02-06T15:09:44.983987
ChIJ8d8cmqLEhkcRaO71citcGZI,Pugilistica Domino | Palestra | Milano | Gratosoglio,gym,45.4071001,9.1731738,4.5,18.0,,"Via Michele Saponaro, 30, Milano","gym,health,point_of_interest,establishment",OPERATIONAL,milan,2026-02-06T15:09:46.100290
ChIJZ2mKrJHEhkcRoUTUfwClaI0,Centro Sportivo Peppino Vismara,gym,45.409513,9.1792357,4.3,832.0,,"Via dei Missaglia, 117, Milano","gym,health,point_of_interest,establishment",OPERATIONAL,milan,2026-02-06T15:09:47.264112
ChIJcURU_xHFhkcRwqhU4b4UM14,S.S.D. Madas s.r.l.,gym,45.40708699999999,9.2290716,4.4,19.0,,"Via delle Cascine, 16, San Donato Milanese","gym,health,point_of_interest,establishment",OPERATIONAL,milan,2026-02-06T15:09:48.351856
ChIJNxr0V4LEhkcR58AAzIfca2U,Dynamic Center,gym,45.41435999999999,9.1702089,4.9,87.0,,"Via Achille Feraboli, 37, Milano","gym,point_of_interest,health,establishment",OPERATIONAL,milan,2026-02-06T15:09:48.611779
ChIJZeHfk1TFhkcRTnwz1e1fsOg,BioYoga: Bioenergetica e Yoga,gym,45.4152047,9.239339700000004,,,,Milan,"gym,health,point_of_interest,establishment",OPERATIONAL,milan,2026-02-06T15:09:49.861709
ChIJtdXsKvjFhkcRGyKBjmc2IpQ,Posturalcentro,gym,45.4178487,9.178240100000002,4.9,53.0,,"Via Fratelli Fraschini, 12, Milano","gym,health,point_of_interest,establishment",OPERATIONAL,milan,2026-02-06T15:09:50.929975
ChIJubGX0FDFhkcR6u6z3suvObM,"Palestra Pubblica ""La Compagnia dell'Anello"" | Parco Calisthenics",gym,45.4209853,9.1754468,5.0,3.0,,Milan,"gym,health,point_of_interest,establishment",OPERATIONAL,milan,2026-02-06T15:09:50.930017
ChIJzwUslhrFhkcRjtr-kGZMaDE,WM Studio,gym,45.4195423,9.205028,5.0,1.0,,"Via Giuseppe Ripamonti, 367, Milano","gym,health,point_of_interest,establishment",OPERATIONAL,milan,2026-02-06T15:09:51.252016
ChIJIVT-PH_EhkcRYOkS4til-xc,Milanosport - Swimming,gym,45.42506789999999,9.173066999999998,3.8,669.0,,"Via Sant'Abbondio, 12, Milano","gym,health,point_of_interest,establishment",OPERATIONAL,milan,2026-02-06T15:09:53.216211
ChIJJ_IK2RTFhkcRJ3C_sJSQgqo,Reattiva,gym,45.4232216,9.1765689,5.0,8.0,,"Via Fabrizio de Andrè, 2, Milano","gym,doctor,physiotherapist,health,point_of_interest,establishment",OPERATIONAL,milan,2026-02-06T15:09:53.216247
ChIJbdXxp0zFhkcRhJkMq7j5lLs,Crossfit dei missaglia,gym,45.4231981,9.1766533,4.9,16.0,,"Via Fabrizio de Andrè, 2, Milano","gym,health,point_of_interest,establishment",OPERATIONAL,milan,2026-02-06T15:09:53.216257
ChIJo8nArsnFhkcR9ODy-NQhZGE,Magnitudo Training-Lab,gym,45.4248425,9.1982065,5.0,30.0,,"Via Antegnati, 11/Palazzina 13/C, Milano","gym,health,point_of_interest,establishment",OPERATIONAL,milan,2026-02-06T15:09:53.488824
ChIJ9UkM_urFhkcRj0FsGAqyoPE,FitActive Milano Ripamonti,gym,45.425711,9.200710499999998,4.5,680.0,,"Via Muzio Attendolo Detto Sforza, 11, Milano","gym,health,point_of_interest,establishment",OPERATIONAL,milan,2026-02-06T15:09:53.603196
ChIJjWN2jgDDhkcRoWzxPFXMjRM,Gym And Fun (Piscina Estiva),gym,45.4241654,9.128281599999998,3.6,122.0,,"Via Indipendenza, 3, Buccinasco","gym,point_of_interest,health,establishment",CLOSED_TEMPORARILY,milan,2026-02-06T15:09:54.621938
ChIJNc9goOLDhkcRNdIRBtaJaow,Spazio-Sport,gym,45.43050340000001,9.161879500000001,,,,"Via San Paolino, 20, Milano","gym,point_of_interest,health,establishment",OPERATIONAL,milan,2026-02-06T15:09:54.965504
ChIJS__CepfFhkcR1oeYlyIiSIg,Parco Calisthenics Street Workout Fatima,gym,45.42864429999999,9.2058424,4.3,6.0,,"Via Federico Chopin, 17, Milano","gym,health,point_of_interest,establishment",OPERATIONAL,milan,2026-02-06T15:09:56.053840
ChIJTxwP8q3FhkcRcRIsKtuDc5k,Servizio Personal Training - Calisthenics,gym,45.4293457,9.207507399999999,5.0,5.0,,"Via Piero Bottoni, 10, Milano","gym,health,point_of_interest,establishment",OPERATIONAL,milan,2026-02-06T15:09:56.053898
ChIJAXd5qkXEhkcRIZci_W4GMNE,Polisportiva Milano,gym,45.4308576,9.2046681,,,,"Via Ermanno Wolf Ferrari, 6, Milano","gym,health,point_of_interest,establishment",OPERATIONAL,milan,2026-02-06T15:09:56.053910
ChIJpxYugJXFhkcRy5K0vXma3Uk,A.S.D. Kodokan Milan,gym,45.4307232,9.2453991,5.0,13.0,,"Via Monte Popera, 5, Milano","gym,point_of_interest,health,establishment",OPERATIONAL,milan,2026-02-06T15:09:57.000258
ChIJHV0ZesfFhkcRfP3YR7dSxvM,Arctos Academy,gym,45.4277178,9.2498306,5.0,46.0,,"Via Privata Fidenza, 1, Milano","gym,point_of_interest,health,establishment",OPERATIONAL,milan,2026-02-06T15:09:57.000315
ChIJ9blcNr3DhkcRnMzfL6a05PQ,Suryanagara-Ashram (Yoga Milano),gym,45.4331796,9.148688,4.8,4.0,,"Via Teramo, 5, Milano","gym,health,point_of_interest,establishment",OPERATIONAL,milan,2026-02-06T15:09:57.410697
ChIJY_vBE4XDhkcRJ6d5UQgex10,Scuola Calcio Barona 1971,gym,45.4333186,9.1663573,4.1,21.0,,"Via San Paolino, Milano","gym,point_of_interest,health,establishment",OPERATIONAL,milan,2026-02-06T15:09:57.665374
ChIJVapI8fDDhkcRRQUMmaTZUDc,G.S.QUARTIERE S. AMBROGIO,gym,45.4309245,9.164155800000003,5.0,2.0,,"Via San Paolino, 18, Milano","gym,point_of_interest,health,establishment",OPERATIONAL,milan,2026-02-06T15:09:57.665428
ChIJz0CqnYXDhkcRJvFwgA0R7_A,Centri Di Aggregazione Multifunzionale,gym,45.43081999999999,9.164329999999998,4.0,3.0,,"Via San Paolino, 18, Milano","gym,point_of_interest,health,establishment",OPERATIONAL,milan,2026-02-06T15:09:57.665437
ChIJszSRNYjDhkcRddCoFe-IrFU,Dojo Otani - Palestra Di Judo,gym,45.43312479999999,9.172135899999999,4.7,26.0,,"Via Pescarenico, 2, Milano","gym,health,point_of_interest,establishment",OPERATIONAL,milan,2026-02-06T15:09:57.775779
ChIJtxvDr3HEhkcRpZxSKgyv-iQ,20 Hours Club gym Medeghino Bocconi area,gym,45.4329741,9.182976100000001,3.4,152.0,,"Via Medeghino, 2, Milano","gym,health,point_of_interest,establishment",OPERATIONAL,milan,2026-02-06T15:09:58.473052
ChIJfydOsOzFhkcRrbxgBC-fM0g,BEBO PILATES STUDIO,gym,45.4341684,9.1812068,,,,"Via Stadera, 6, Milano","gym,health,point_of_interest,establishment",OPERATIONAL,milan,2026-02-06T15:09:58.473105
ChIJxUKRIXLEhkcRVZDMDVxlxQs,Milano Fitness Lab,gym,45.4350093,9.1843189,5.0,31.0,,"Via Nicola Palmieri, 61, Milano","gym,health,point_of_interest,establishment",OPERATIONAL,milan,2026-02-06T15:09:58.586142
ChIJF86wNkLEhkcRz4YbovNgGu0,Dribselling,gym,45.4325462,9.1992281,5.0,1.0,,"Via Sibari, 15/A, Milano","gym,health,point_of_interest,establishment",OPERATIONAL,milan,2026-02-06T15:09:58.716392
ChIJp5A4sF3FhkcRjxtImoy6Nmo,Tweeling Pilates,gym,45.4321558,9.1982901,5.0,3.0,,"Via Sibari, 15 B, Milano","gym,health,point_of_interest,establishment",OPERATIONAL,milan,2026-02-06T15:09:58.716446
ChIJQ-_K2UnFhkcRNfieVoVlNDw,Calisthenics Union Ripamonti - Corsi di calisthenics,gym,45.43188989999999,9.198864799999997,5.0,17.0,,"Via Sibari, 15, Milano","gym,health,point_of_interest,establishment",OPERATIONAL,milan,2026-02-06T15:09:58.716458
ChIJ9wBqxD3FhkcRRgkXxzhv7wY,Team Petrosyan,gym,45.4316716,9.199148500000002,4.8,37.0,,"Via Sibari, 15, Milano","gym,health,point_of_interest,establishment",OPERATIONAL,milan,2026-02-06T15:09:58.716466
ChIJBUX0sorDhkcRmxjTprUs_lM,Patuá ASD - capoeira and martial arts,gym,45.4350118,9.207676900000001,4.9,35.0,,"Via Cortina d'Ampezzo 14, Viale Gran Sasso, 48, Corbetta","gym,health,point_of_interest,establishment",OPERATIONAL,milan,2026-02-06T15:09:58.924063
ChIJaRNSOUTFhkcRBmP0HgR6W9s,Shorinji Kempo Milano Sud Branch - Scuola di Arti Marziali,gym,45.4352819,9.207947800000001,5.0,10.0,,"Via Cortina d'Ampezzo, 14, Milano","gym,health,point_of_interest,establishment",OPERATIONAL,milan,2026-02-06T15:09:58.924123
ChIJWyeXfkjEhkcRc1pruoSiRK4,Allenamento Funzionale Calisthenics Milano,gym,45.4353065,9.2079238,4.9,53.0,,"Via Cortina d'Ampezzo, 14, Milano","gym,health,point_of_interest,establishment",OPERATIONAL,milan,2026-02-06T15:09:58.924133
ChIJ94fGDpXFhkcRiRpTuluSG9E,La Conca Dei 5 Umeboshi,gym,45.4325279,9.244995000000001,4.9,27.0,,"Via Monte Palombino, 16, Milano","gym,health,point_of_interest,establishment",OPERATIONAL,milan,2026-02-06T15:09:59.941220
ChIJR3FfKgDFhkcRsONV6y0_TdU,Corso di Yoga,gym,45.4325419,9.245054099999999,,,,"Via Monte Palombino, 16, Milano","gym,health,point_of_interest,establishment",OPERATIONAL,milan,2026-02-06T15:09:59.941262
ChIJOZwGR4rFhkcRSQypKpydaak,Polisportiva Budosan,gym,45.42956829999999,9.2636325,4.7,3.0,,"Via John Fitzgerald Kennedy, San Donato Milanese","gym,health,point_of_interest,establishment",OPERATIONAL,milan,2026-02-06T15:10:00.127630
ChIJ-6Pqc4PPhkcRq4MjY8jhOBg,Accademia Tao – Difesa Personale & Arti Marziali San Donato,gym,45.4292667,9.2606605,4.9,41.0,,"nuova palestra Scuola Media, Via Triulziana 48 Altra sede (da novembre 2025, Via Agadir, San Donato Milanese","gym,health,point_of_interest,establishment",OPERATIONAL,milan,2026-02-06T15:10:00.127685
ChIJW5608o7DhkcRftzAn69HgQU,FitActive Buccinasco,gym,45.43429820000001,9.119653000000001,4.3,585.0,,"Via Andrea Mantegna, 1, Buccinasco","gym,health,point_of_interest,establishment",OPERATIONAL,milan,2026-02-06T15:10:00.392388
ChIJJW371VrDhkcR_yJSANaEfwI,Urban Fitness Buccinasco,gym,45.4365809,9.1184607,5.0,12.0,,"Via Vigevanese, 3, Buccinasco","gym,health,point_of_interest,establishment",OPERATIONAL,milan,2026-02-06T15:10:00.392440
ChIJ56tf_dPDhkcRenTDf3q8mx8,Fit Boutique Gym & Wellness ASD,gym,45.4326111,9.1203309,4.8,71.0,,"Via degli Alpini, 48, Buccinasco","gym,health,point_of_interest,establishment",OPERATIONAL,milan,2026-02-06T15:10:00.392452
ChIJAQBQd1HChkcRsHzNMw6HXRQ,Studio Regina Pilates,gym,45.4324762,9.1203569,4.9,48.0,,"Via degli Alpini, 48b, Buccinasco","gym,health,point_of_interest,establishment",OPERATIONAL,milan,2026-02-06T15:10:00.392462
ChIJj3A2xm7DhkcRf2k0vKhQbTY,Bunker 34,gym,45.4358501,9.116575400000004,5.0,30.0,,"Via Filippo Turati, 1, Corsico","gym,health,point_of_interest,establishment",OPERATIONAL,milan,2026-02-06T15:10:00.392471
ChIJsxmgZADDhkcR6_-5M_dH8xE,Area Calisthenics,gym,45.4362759,9.1418695,4.5,2.0,,"Parco Andrea Campagna, Viale Faenza, Milano","gym,health,point_of_interest,establishment",OPERATIONAL,milan,2026-02-06T15:10:00.561987
ChIJJar_rzjDhkcRfugkpEtou28,Corpoemovimento PilatesYoga&more,gym,45.4396709,9.140361500000001,5.0,5.0,,"Via Privata Paternò, Milano","gym,point_of_interest,health,establishment",CLOSED_TEMPORARILY,milan,2026-02-06T15:10:00.672444
ChIJX6wwx5XDhkcR8yPDxd7biZY,GYM THE CHIMERA,gym,45.4369016,9.1568525,4.5,78.0,,"Viale Famagosta, 10, Milano","gym,health,point_of_interest,establishment",OPERATIONAL,milan,2026-02-06T15:10:01.379241
ChIJs1KLQZHDhkcRkyy9kv61kZw,Gymnastics Federation of Italy,gym,45.4357984,9.161673099999998,4.5,37.0,,"Via Ovada, 40, Milano","gym,point_of_interest,health,establishment",OPERATIONAL,milan,2026-02-06T15:10:01.511332
ChIJAQDQ6I3DhkcRIrQki1p0Fg0,Centro Medico Politerapico Ribor,gym,45.4370808,9.164125899999998,4.5,15.0,,"Viale Famagosta, 50, Milano","gym,hospital,doctor,physiotherapist,point_of_interest,health,establishment",OPERATIONAL,milan,2026-02-06T15:10:01.511390
ChIJd4vNH3XEhkcRhBK1EPnYTmQ,GetFIT - Via Meda,gym,45.4386236,9.178293499999999,4.0,704.0,,"Via Giuseppe Meda, 52, Milano","gym,health,point_of_interest,establishment",OPERATIONAL,milan,2026-02-06T15:10:01.731375
ChIJveUAbADFhkcRpxV5d9ty5og,Karatemilanofamagosta,gym,45.4367083,9.1757209,,,,"PL.Carrara 19Milano, Milano","gym,health,point_of_interest,establishment",OPERATIONAL,milan,2026-02-06T15:10:01.731431
ChIJMZa5k3XEhkcRVjZiRlXfaEE,Defense Milan - Molonlabe,gym,45.4367189,9.1757285,4.9,86.0,,"Piazza Francesco Carrara, 19, Milano","gym,health,point_of_interest,establishment",OPERATIONAL,milan,2026-02-06T15:10:01.731442
ChIJmeAryyDFhkcR762gkoR1izY,Binario.87,gym,45.436361,9.179562400000002,5.0,2.0,,"Via Francesco de Sanctis, 39, Milano","gym,health,point_of_interest,establishment",OPERATIONAL,milan,2026-02-06T15:10:01.731454
ChIJd4vNH3XEhkcR9iAfm7er2_A,Mel Italia Srl,gym,45.4385941,9.178284,,,,"Via Giuseppe Meda, 52, Milano","gym,health,point_of_interest,establishment",OPERATIONAL,milan,2026-02-06T15:10:01.731462
ChIJt0dZRJbFhkcR0K4RsVYyZbs,EQUILIBRE,gym,45.4383189,9.1785966,5.0,41.0,,"Via Giuseppe Meda, 55, Milano","gym,health,point_of_interest,establishment",OPERATIONAL,milan,2026-02-06T15:10:01.731471
ChIJC_SCyl_FhkcRraiJT5BkhP0,palestra,gym,45.4385941,9.178284,,,,"Via Giuseppe Meda, 52, Milano","gym,health,point_of_interest,establishment",OPERATIONAL,milan,2026-02-06T15:10:01.731503
ChIJpyh36J3FhkcRhscYNe701JE,2g Beauty Center Meda 52 by Daly,gym,45.4385941,9.178284,4.9,31.0,,"Via Giuseppe Meda, 52, Milano","beauty_salon,gym,health,store,point_of_interest,establishment",OPERATIONAL,milan,2026-02-06T15:10:01.731513
ChIJ5egtY5vFhkcR6A7rqp35jR4,Ahmed Sportd,gym,45.4367568,9.1800143,4.3,6.0,,Milan,"gym,health,point_of_interest,establishment",OPERATIONAL,milan,2026-02-06T15:10:01.731521
ChIJE6RedXPEhkcRdfU0Hqo-HYA,Societa Ginnastica Ticinese A.S.D.,gym,45.43726059999999,9.182178600000002,4.0,5.0,,"Viale Giovanni da Cermenate, 56, Milano","gym,health,point_of_interest,establishment",OPERATIONAL,milan,2026-02-06T15:10:01.851699
ChIJCbCJx_vFhkcRRlQOGe9BkZU,Fit & Flow Studio,gym,45.4392351,9.1829553,5.0,29.0,,"Via Giulio Carcano, 44, Milano","gym,health,point_of_interest,establishment",OPERATIONAL,milan,2026-02-06T15:10:01.851748
ChIJDeuyUhXEhkcRhc0Yyo2F9Ws,"Sports Center ""Strength and Courage""",gym,45.4384411,9.1979495,3.7,788.0,,"Via Gallura, 8, Milano","gym,health,point_of_interest,establishment",OPERATIONAL,milan,2026-02-06T15:10:02.049533
ChIJB9JfENHFhkcREuTBcpnsTBY,Armonya Milano,gym,45.43802729999999,9.193170300000002,5.0,9.0,,"Via Bernardino Verro, 49, Milano","gym,health,point_of_interest,establishment",OPERATIONAL,milan,2026-02-06T15:10:02.049588
ChIJS42T-UDEhkcRMJJKOJqRSSQ,Pilates,gym,45.4362168,9.2011101,5.0,4.0,,"Via Bernardo Quaranta, n° 3, Milano","gym,health,point_of_interest,establishment",OPERATIONAL,milan,2026-02-06T15:10:02.180700
ChIJh4KxY_zFhkcRc-dWcXCsXy0,ALMA - Movesforthesoul,gym,45.437339,9.2010621,,,,"Via Giuseppe Ripamonti, 137, Milano","gym,health,point_of_interest,establishment",OPERATIONAL,milan,2026-02-06T15:10:02.180757
ChIJZypmjKXFhkcRibUSeoABVL8,MBOsteopatia | Osteopata a Milano,gym,45.4393277,9.1997469,5.0,91.0,,"Via Giuseppe Ripamonti, 114, Milano","gym,health,point_of_interest,establishment",OPERATIONAL,milan,2026-02-06T15:10:02.180771
ChIJiZBewz_EhkcR-dGCOOyFuOU,Gym New Life,gym,45.439631,9.1996633,4.6,127.0,,"Via Giuseppe Ripamonti, 110, Milano","gym,health,point_of_interest,establishment",OPERATIONAL,milan,2026-02-06T15:10:02.180781
ChIJYRuadxXEhkcRzo4nAed7Y3M,ONSTAGE NewAGE,gym,45.4393541,9.199800499999998,5.0,9.0,,"Via Giuseppe Ripamonti, 114, Milano","gym,health,point_of_interest,establishment",OPERATIONAL,milan,2026-02-06T15:10:02.180789
ChIJx0x4kKbFhkcRBAsR8Zw2whI,Krav Maga Center Milano,gym,45.439631,9.199663000000001,5.0,7.0,,"Via Giuseppe Ripamonti, 110, Milano","gym,health,point_of_interest,establishment",OPERATIONAL,milan,2026-02-06T15:10:02.180798
ChIJMyV6KT3FhkcR4ZQIYUTwtK8,Monica Anthony Yoga,gym,45.4399739,9.1992371,5.0,28.0,,"Via Rutilia, 5, Milano","gym,health,point_of_interest,establishment",OPERATIONAL,milan,2026-02-06T15:10:02.180806
ChIJo5F1wTjEhkcRbJtscbYjLtU,Action Fit Gargano,gym,45.4391204,9.206037499999999,4.0,260.0,,"Via Gargano, 3, Milano","gym,point_of_interest,health,spa,establishment",OPERATIONAL,milan,2026-02-06T15:10:02.314333
ChIJZQ0jKI3FhkcRLdwIYPwnpmg,Nexus Academy - Symbiosis,gym,45.4391713,9.2057013,3.6,37.0,,"Via Gargano, Milano","gym,point_of_interest,health,establishment",OPERATIONAL,milan,2026-02-06T15:10:02.314387
ChIJmaEjMszFhkcRaFqMElx1Xto,MUAY THAI CAMP MILANO,gym,45.4367415,9.2130999,4.7,12.0,,"Via Marco D'Agrate, 23, Milano","gym,health,point_of_interest,establishment",OPERATIONAL,milan,2026-02-06T15:10:02.445481
ChIJRR_R3ffFhkcRzM1toAdeqNU,MGM Milano Boxeisland,gym,45.4367762,9.2131345,4.6,73.0,,"Via Marco D'Agrate, 23, Milano","bar,gym,health,point_of_interest,establishment",OPERATIONAL,milan,2026-02-06T15:10:02.445534
ChIJ-YNnYTrFhkcRptC3iK4yp8k,Palestra Jason fitness,gym,45.4370656,9.2139901,5.0,9.0,,"Via Marco D'Agrate, 14, Milano","gym,health,point_of_interest,establishment",OPERATIONAL,milan,2026-02-06T15:10:02.445547
ChIJ2QvrQPbFhkcRm90vzlxLv1w,"CEM Torricelli @ Scuola media ""Alvaro""",gym,45.4388812,9.218139899999999,,,,"Via Mincio, 37-21, Milano","gym,health,point_of_interest,establishment",OPERATIONAL,milan,2026-02-06T15:10:03.064932
ChIJB29uTznFhkcR2e6OSfo4gX8,Sat Yoga,gym,45.4389458,9.221607499999998,5.0,14.0,,"Via Polesine, 21, Milano","gym,health,point_of_interest,establishment",OPERATIONAL,milan,2026-02-06T15:10:03.064984
ChIJYV6Zf8zFhkcRrbxp8NKUNqo,Milano Basket Stars,gym,45.4391719,9.2412973,4.0,69.0,,"Via Giacomo Manzú, Milano","gym,health,point_of_interest,establishment",OPERATIONAL,milan,2026-02-06T15:10:03.341179
ChIJbSANmgrFhkcR7dgP09DLHeg,Reb Milano - Poliambulatorio,gym,45.4372791,9.243052900000002,5.0,94.0,,"Via Bruno Cassinari, 20, Milano","hospital,gym,health,point_of_interest,establishment",OPERATIONAL,milan,2026-02-06T15:10:03.341240
ChIJYdtS0hHFhkcRV64FoFirVzU,Elite Body Fitness,gym,45.4380433,9.2435344,1.0,1.0,,"Via Bruno Cassinari, 25, Milano","gym,health,point_of_interest,establishment",OPERATIONAL,milan,2026-02-06T15:10:03.341251
ChIJ07HGDSHChkcRL2eMR9cAegE,La Vie en Rose - Holistic Center,gym,45.44127460000001,9.120527899999999,4.3,3.0,,"Via Francesco Gonin, 65, Milano","gym,school,store,health,point_of_interest,establishment",OPERATIONAL,milan,2026-02-06T15:10:04.371024
ChIJL4Wx17fDhkcRxzRUUpd6Yl0,Dance school ASD Arteka,gym,45.4428124,9.1391482,4.7,30.0,,"Via Privata Parenzo, 2/1, Milano","gym,health,point_of_interest,establishment",OPERATIONAL,milan,2026-02-06T15:10:04.547967
ChIJ82L0Em_DhkcRfrQRdLWm8io,Ulla Yoga & Pilates,gym,45.4428656,9.135757400000001,5.0,15.0,,"Via Lodovico Il Moro, 125, Milano","gym,health,point_of_interest,establishment",OPERATIONAL,milan,2026-02-06T15:10:04.548011
ChIJ30YrtsbDhkcRHn2VBkjaBJ0,Dance Vision a.s.d,gym,45.4421147,9.141314500000002,,,,"Via Privata Parenzo, 7, Milano","gym,health,point_of_interest,establishment",OPERATIONAL,milan,2026-02-06T15:10:04.548021
ChIJHwWLa17DhkcRjtwRCRouVrM,PsicoloGea - Dott. Rocco Trevis Merlo,gym,45.4414166,9.1439794,4.9,58.0,,"Via San Giuseppe Cottolengo, 32, Milano","gym,health,point_of_interest,establishment",OPERATIONAL,milan,2026-02-06T15:10:04.753417
ChIJ28vLyRcYrCURAU9W12z8Zes,PsicoloGea,gym,45.4415269,9.1440892,5.0,2.0,,"Via San Giuseppe Cottolengo, 32, Milano","gym,health,point_of_interest,establishment",OPERATIONAL,milan,2026-02-06T15:10:04.753450
ChIJU1WF1LjDhkcRyDHiz0rMFx4,Diabete In Movimento,gym,45.4403599,9.146754099999999,,,,"Via Walter Tobagi, 6, Milano","gym,health,point_of_interest,establishment",OPERATIONAL,milan,2026-02-06T15:10:04.753455
ChIJre2FcQ7DhkcRyf-EDB6qJ-A,Marilyn's Workout,gym,45.4405247,9.147238699999997,5.0,19.0,,"Via Walter Tobagi, 6, Milano","gym,health,point_of_interest,establishment",OPERATIONAL,milan,2026-02-06T15:10:04.753459
ChIJbUWfxYPBhkcReywutwsusNs,Flight Club Milano,gym,45.44122609999999,9.152223799999998,4.9,57.0,,"Via Ettore Ponti, 53, Milano","gym,health,point_of_interest,establishment",OPERATIONAL,milan,2026-02-06T15:10:04.877466
ChIJT5RyYzjDhkcRyyGYkXJPQ0c,Mi Alleno Con Jad,gym,45.443731,9.1515057,,,,"Via Giacomo Watt, Milano","gym,health,point_of_interest,establishment",OPERATIONAL,milan,2026-02-06T15:10:04.877496
ChIJvY19bOvDhkcRaRMMjgLOGzg,Ateltico Barona,gym,45.44052179999999,9.159671,4.2,52.0,,"via 20143, Via Privata Bitinia, 5, Milano","gym,point_of_interest,health,establishment",OPERATIONAL,milan,2026-02-06T15:10:04.998093
ChIJZ7LTrdLDhkcRk-N__YfjIpI,Amine elite boxing coach,gym,45.44259719999999,9.1558807,,,,"Via Ettore Ponti, 10, Milano","gym,point_of_interest,health,establishment",OPERATIONAL,milan,2026-02-06T15:10:04.998143
ChIJrQbaAv7DhkcRp9tOnPVxKwY,PalaBarona (Villaggio Barona),gym,45.4427542,9.1585245,4.3,7.0,,"Via Ettore Ponti, 13, Milano","gym,point_of_interest,health,establishment",OPERATIONAL,milan,2026-02-06T15:10:04.998150
ChIJpTHy5kjDhkcRgFyNBwrOTdc,Area attrezzata Calisthenics - giardino Baridon,gym,45.441311,9.164659200000001,5.0,4.0,,"Via Bo, 8, Milano","gym,point_of_interest,health,establishment",OPERATIONAL,milan,2026-02-06T15:10:05.192638
ChIJjycHIgDDhkcRTVeasLKHtDw,Palestra all'aperto,gym,45.44098779999999,9.1649909,4.7,3.0,,"Giardino Silvio Federico Baridon (già Parco Franco Russoli, Via Franco Russoli, 14, Milano","gym,point_of_interest,health,establishment",OPERATIONAL,milan,2026-02-06T15:10:05.192678
ChIJxy44bnLDhkcRUUv4VuCdFRg,GPS Studio,gym,45.44088310000001,9.167314000000001,,,,"Via Moncucco, 22, Milano","gym,point_of_interest,health,establishment",OPERATIONAL,milan,2026-02-06T15:10:05.192687
ChIJ5TFZCR5d6qkRrw7FsSlI10Q,Massimo Parisi Personal Trainer,gym,45.4441701,9.163112199999999,5.0,27.0,,"Viale Cassala, 22, Milano","gym,point_of_interest,health,establishment",OPERATIONAL,milan,2026-02-06T15:10:05.192694
ChIJyaYsW-fDhkcRMpL4BF-aARs,LT Medical Group,gym,45.4442438,9.1634694,,,,"Viale Cassala, 22, Milano","gym,doctor,point_of_interest,health,establishment",OPERATIONAL,milan,2026-02-06T15:10:05.192701
ChIJLd8nmT_DhkcRKnmTe77hNXQ,Authentic Yoga Milano,gym,45.4418487,9.1711933,4.9,100.0,,"Via Imperia, 23, Milano","gym,school,health,point_of_interest,establishment",OPERATIONAL,milan,2026-02-06T15:10:05.514538
ChIJ8T-U_xLEhkcRheR_tkBLamk,MUAY THAI MILANO A.S.D. Shark Team,gym,45.44183570000001,9.172318500000001,4.9,65.0,,"Via Imperia, 17, Milano","gym,health,point_of_interest,establishment",OPERATIONAL,milan,2026-02-06T15:10:05.514584
ChIJDVYGv2TDhkcRCU3uo7f3WeQ,Freddie health & fitness di Federico Brizzi,gym,45.4408358,9.173988299999998,4.9,27.0,,"Via Rimini, 2, Milano","gym,health,point_of_interest,establishment",OPERATIONAL,milan,2026-02-06T15:10:05.514597
ChIJG_Fmt_XDhkcRJXjH7hoHDqo,Action Fit Viale Liguria,gym,45.4435534,9.1747674,3.2,600.0,,"Viale Liguria, 46, Milano","gym,health,point_of_interest,establishment",OPERATIONAL,milan,2026-02-06T15:10:05.663360
ChIJ_9o_ZPXDhkcR2L_FTMiHN3k,Jeet Kune Do Milano CAAM Fighters Kickboxing Karate,gym,45.4417368,9.175858500000002,4.5,4.0,,"Via Ascanio Sforza, 81/A/citofono 68 - cortile interno, Milano","gym,health,point_of_interest,establishment",OPERATIONAL,milan,2026-02-06T15:10:05.663414
ChIJqRDXZPXDhkcROuINVZgb2nY,Martial Arts Training Center Milan,gym,45.4417603,9.1759389,4.1,7.0,,"Via Cardinale, Via Ascanio Sforza, 81/A/citofono 68 - cortile interno, Milano","gym,health,point_of_interest,establishment",OPERATIONAL,milan,2026-02-06T15:10:05.663432
ChIJVSxpnmTDhkcRHJtgPzAaFKo,Factory Gym Club Milano Navigli,gym,45.44183049999999,9.176103399999999,4.7,258.0,,"Via Ascanio Sforza, 81, Milano","gym,health,point_of_interest,establishment",OPERATIONAL,milan,2026-02-06T15:10:05.663443
ChIJL8N5TwrEhkcRrLLApT7zdro,Associazione Culturale Arte',gym,45.4430503,9.1794109,5.0,21.0,,"Via Giuseppe Meda, 25, Milano","gym,health,point_of_interest,establishment",OPERATIONAL,milan,2026-02-06T15:10:05.783724
ChIJEV2f-BLEhkcR2zoz0Z27NgY,MMA Athletics Boxing,gym,45.4411558,9.191883200000001,4.6,46.0,,"Via dei Fontanili, 11/A, Milano","gym,health,point_of_interest,establishment",OPERATIONAL,milan,2026-02-06T15:10:06.411975
ChIJI3lYUhLEhkcRObcMYhyKVck,Parco Calisthenics Erasmo da Rotterdam,gym,45.441782,9.1907924,4.3,135.0,,"Via Erasmo da Rotterdam, 4, Milano","gym,health,point_of_interest,establishment",OPERATIONAL,milan,2026-02-06T15:10:06.412001
ChIJp-chcBXEhkcRj0uuLqnzxXY,Palestra Functional Box,gym,45.4399913,9.1983788,4.8,26.0,,"Via Rutilia, 11, Milano","gym,health,point_of_interest,establishment",OPERATIONAL,milan,2026-02-06T15:10:06.534747
ChIJSWYWujDFhkcRJxVw3aKGYzI,Nexus Academy - Pietrasanta,gym,45.4442896,9.1954447,4.2,88.0,,"Via Pietrasanta, 14, Milano","gym,health,point_of_interest,establishment",OPERATIONAL,milan,2026-02-06T15:10:06.534770
ChIJB7t0iubFhkcR7wDuIYgKveg,This is the Way,gym,45.44057239999999,9.201745899999999,5.0,1.0,,"Via Ampola, 16, Milano","physiotherapist,gym,health,point_of_interest,establishment",OPERATIONAL,milan,2026-02-06T15:10:06.652611
ChIJf0atqz_EhkcRV-gxQ4683b0,XSHAPE,gym,45.4401961,9.2020394,5.0,20.0,,"Via Ampola, 11-16, Milano","physiotherapist,gym,health,point_of_interest,establishment",OPERATIONAL,milan,2026-02-06T15:10:06.652641
ChIJLwxnMzrEhkcRXC4obdmSxDQ,TWELVE PILATES STUDIO,gym,45.4430864,9.208961099999998,4.3,6.0,,"Via Arcivescovo Calabiana, 12, Milano","gym,health,point_of_interest,establishment",OPERATIONAL,milan,2026-02-06T15:10:06.767970
ChIJUVQcKTTEhkcRhpu-NTtUMLA,Milanosport - Piscina Mincio,gym,45.4402142,9.216265199999999,3.7,538.0,,"Via Mincio, 13, Milano","gym,point_of_interest,health,establishment",OPERATIONAL,milan,2026-02-06T15:10:06.915533
ChIJB1mwqgDEhkcRbYi7c0H0in4,EFOA International - Corsi di Formazione Discipline Orientali - Yoga e Pilates,gym,45.442526,9.211725099999999,4.8,6.0,,"Via Benaco, 26, Milano","gym,point_of_interest,health,establishment",OPERATIONAL,milan,2026-02-06T15:10:06.915567
ChIJkSbSQTTEhkcRTKeO2f-Gp_Q,CEM TORRICELLI LOMBARDINI V14 ASD,gym,45.4402175,9.2183208,4.3,7.0,,"Via Oglio, 20, Milano","gym,point_of_interest,health,establishment",OPERATIONAL,milan,2026-02-06T15:10:06.915577
ChIJCQLZZDHEhkcRlRZCY_Srt9Q,Olimpia Sport,gym,45.4429321,9.216871200000002,4.7,58.0,,"Corso Lodi, 82, Milano","gym,point_of_interest,health,establishment",OPERATIONAL,milan,2026-02-06T15:10:06.915586
ChIJh0aUADHEhkcREDCC9aOXrkY,Body Rock Pole Dance Studio,gym,45.443894,9.215187999999998,4.9,85.0,,"Via Tagliamento, 3, Milano","gym,point_of_interest,health,establishment",OPERATIONAL,milan,2026-02-06T15:10:06.915594
ChIJufhTS-nFhkcRLbNQXAojszM,MyPilatesLab di Cecilia Matuonto,gym,45.4400053,9.2155944,5.0,6.0,,"Presso Altrotrainig, in fondo al cortile a sinistra, giù dalla scala, Via Mincio, 12, Milano","gym,point_of_interest,health,establishment",OPERATIONAL,milan,2026-02-06T15:10:06.915602
ChIJ84Wy7VfFhkcRSvKQWBRCr1I,Altrotraining Studio,gym,45.4399766,9.2156937,5.0,49.0,,"Via Mincio, 12, Milano","gym,point_of_interest,health,establishment",OPERATIONAL,milan,2026-02-06T15:10:06.915611
ChIJnbOK_B_FhkcRKYA6DLmUGIg,Studio Pilates CDM,gym,45.4433218,9.2143857,3.0,2.0,,"Via Don Bosco, 16, Milano","gym,point_of_interest,health,establishment",OPERATIONAL,milan,2026-02-06T15:10:06.915622
ChIJExhJxb_FhkcRkpt3VIsz9Fg,Brooklyn Fitboxing Corso lodi,gym,45.4429972,9.217682899999998,5.0,108.0,,"Corso Lodi, 90, Milano","gym,health,point_of_interest,establishment",OPERATIONAL,milan,2026-02-06T15:10:07.050399
ChIJWwfX1czFhkcR5NtkLTTsZzs,ACCADUEO' CLUB,gym,45.4432528,9.223788599999997,4.4,752.0,,"Viale Lucania, 27, Milano","physiotherapist,gym,health,point_of_interest,establishment",OPERATIONAL,milan,2026-02-06T15:10:07.177860
ChIJB26x5rzFhkcRZT3bPnsumyY,CEM Torricelli Tensostruttura Martinengo,gym,45.4407684,9.225976,2.5,2.0,,"Via Carlo Boncompagni, 10, Milano","gym,health,point_of_interest,establishment",OPERATIONAL,milan,2026-02-06T15:10:07.177889
ChIJ469V5SfEhkcRYs6-QgmE0Ns,Sit Hanuman Sport E Cultura A.S.D.,gym,45.4437232,9.223030500000002,4.7,31.0,,"Viale Bacchiglione, 26, Milano","gym,health,spa,point_of_interest,establishment",OPERATIONAL,milan,2026-02-06T15:10:07.177901
ChIJOaei0K7FhkcRCeZ3rasJ7aU,anima&corpo FITNESS,gym,45.4424296,9.2404555,4.8,21.0,,"Via Eugenio Colorni, 3, Milano","gym,health,point_of_interest,establishment",OPERATIONAL,milan,2026-02-06T15:10:07.379461
ChIJh7RqvofphkcRc5VwphEXw0g,Gate Sport la Fenice,gym,45.4474969,9.0713542,4.1,374.0,,"Via Muggiano, 14, Milano","gym,health,point_of_interest,establishment",CLOSED_TEMPORARILY,milan,2026-02-06T15:10:08.385284
ChIJg-KzQkvDhkcRYaJWbXZmTi8,Palestra THORAX,gym,45.4476484,9.1172619,4.8,97.0,,"Via Anna Kuliscioff, 9, Milano","gym,point_of_interest,health,establishment",OPERATIONAL,milan,2026-02-06T15:10:08.517786
ChIJrY45sT3DhkcRKHUlwKrhsVU,Atmasfera Yoga ASD | Milano,gym,45.4476473,9.1172607,5.0,8.0,,"Via Anna Kuliscioff, 9, Milano","gym,point_of_interest,health,establishment",OPERATIONAL,milan,2026-02-06T15:10:08.517811
ChIJExRxuS7DhkcR8OtwEKYwDww,MXT Arena,gym,45.4476473,9.1172607,5.0,9.0,,"Via Anna Kuliscioff, 9, Milano","gym,point_of_interest,health,establishment",OPERATIONAL,milan,2026-02-06T15:10:08.517816
ChIJRTYMNgDDhkcRAI_cODuhj5s,Da Vinci Lab - Fitness & Health,gym,45.44397679999999,9.1108334,5.0,6.0,,"Via Leonardo Da Vinci, 24, Corsico","gym,point_of_interest,health,establishment",OPERATIONAL,milan,2026-02-06T15:10:08.517820
ChIJVR5t2jbChkcRP0R4EEbMB48,Milanosport - Piscina Cardellino | Vasca coperta 25 mt,gym,45.4483778,9.1231531,3.8,590.0,,"Via del Cardellino, 3, Milano","gym,health,point_of_interest,establishment",OPERATIONAL,milan,2026-02-06T15:10:08.644032
ChIJ079DcjXChkcRntDsBlq5iR0,The Studio - Libera il Movimento SSD arl,gym,45.44472380000001,9.1285074,5.0,24.0,,"Piazza Tirana, 2, Milano","gym,health,point_of_interest,establishment",OPERATIONAL,milan,2026-02-06T15:10:08.644060
ChIJDYvHIgnDhkcRTcBbRz7-uj0,Impianti Sportivi Oratorio Murialdo,gym,45.448405,9.127212499999999,4.3,24.0,,"Via Angelo Inganni, 16, Milano","gym,health,point_of_interest,establishment",OPERATIONAL,milan,2026-02-06T15:10:08.759969
ChIJB_Q1IHnDhkcRf0HKewQaw5w,Parco Calisthenics Giambellino,gym,45.4465408,9.1347732,4.5,33.0,,"L.go Giambellino 128 prima di Via Odazio, 20146","gym,health,point_of_interest,establishment",OPERATIONAL,milan,2026-02-06T15:10:08.760010
ChIJb2ieEs7DhkcRJVR-rlp1jN0,Palestra all'aperto,gym,45.44667740000001,9.1349179,5.0,2.0,,"L.go Giambellino 128 prima di Via Odazio, 20146, 20146","gym,point_of_interest,health,establishment",OPERATIONAL,milan,2026-02-06T15:10:08.875466
ChIJnfKmZwDDhkcRHm6crAK0iSo,Garden Pilates Navigli,gym,45.4451522,9.144657100000002,5.0,18.0,,"Via Lodovico Il Moro, 55, Milano","gym,health,point_of_interest,establishment",OPERATIONAL,milan,2026-02-06T15:10:08.994686
ChIJe13JlMbDhkcRyuJWaR6zBwY,Canottieri Milano,gym,45.4470011,9.151842599999998,4.3,1289.0,,"Alzaia Naviglio Grande, 160, Milano","gym,health,restaurant,food,point_of_interest,establishment",OPERATIONAL,milan,2026-02-06T15:10:09.639463
ChIJpUW7PcLDhkcRDHWqfTsPbFM,Canottieri Olona 1894,gym,45.4476191,9.153117800000002,4.3,773.0,,"Alzaia Naviglio Grande, 146, Milano","gym,health,restaurant,food,point_of_interest,establishment",OPERATIONAL,milan,2026-02-06T15:10:09.639506
ChIJA5zaXADDhkcRjVUDwJbpHps,Team Iron Health & Fitness,gym,45.4446985,9.154468,,,,"Via Giacomo Watt, 4, Milano","gym,health,point_of_interest,establishment",OPERATIONAL,milan,2026-02-06T15:10:09.639512
ChIJf3sUPMLDhkcRGMu2tI_XrTY,AIK Budokan Kendo Milano,gym,45.4474557,9.1535569,5.0,13.0,,"Alzaia Naviglio Grande, 146 c/o Canottieri Olona 1894, Milano","gym,point_of_interest,health,establishment",OPERATIONAL,milan,2026-02-06T15:10:09.758311
ChIJvUGoJuXDhkcRbFkEFtpkra8,PILATES ZONE,gym,45.4449507,9.154888600000001,4.5,22.0,,"Via Giovanni Enrico Pestalozzi, 22, Milano","gym,physiotherapist,point_of_interest,health,spa,establishment",OPERATIONAL,milan,2026-02-06T15:10:09.758340
ChIJOThp6cLDhkcRJztFZ9Hujeg,Pilates lab,gym,45.4449595,9.155045699999997,,,,"Via Giovanni Enrico Pestalozzi, 22, Milano","gym,point_of_interest,health,establishment",OPERATIONAL,milan,2026-02-06T15:10:09.758350
ChIJOdG_ThbDhkcR3AldeVK7jMM,Optimalmente,gym,45.4459387,9.155318999999999,,,,"Via Giovanni Enrico Pestalozzi, Milano","gym,point_of_interest,health,establishment",OPERATIONAL,milan,2026-02-06T15:10:09.758359
ChIJZfIseUHDhkcR3yGooudmHgM,Skills Pilates,gym,45.4459185,9.158507199999999,5.0,12.0,,"Via Dionigi Bussola, 4, Milano","gym,point_of_interest,health,establishment",OPERATIONAL,milan,2026-02-06T15:10:09.758368
ChIJ3-WAt-3DhkcR_HX8Hyzpqf8,Orange Palestre Italiane Milano Cassala,gym,45.44436589999999,9.163380900000002,4.0,964.0,,"Viale Cassala, 22, Milano","gym,point_of_interest,health,spa,establishment",OPERATIONAL,milan,2026-02-06T15:10:09.897852
ChIJw2oMP8zDhkcR_14k6F09POc,Yoga & Pilates Mat Studio Villoresi,gym,45.4465522,9.163539000000002,5.0,23.0,,"Via Eugenio Villoresi, 26, Milano","gym,point_of_interest,health,establishment",OPERATIONAL,milan,2026-02-06T15:10:09.897892
ChIJQaJ5a93DhkcR51cw2Ch48Ug,Rep - Rehab & Performance,gym,45.4465657,9.1635362,,,,"Via Eugenio Villoresi, 26, Milano","gym,point_of_interest,health,establishment",OPERATIONAL,milan,2026-02-06T15:10:09.897902
ChIJ630MG0_DhkcR8NqajAl6YEI,POLE-MOOD Milano,gym,45.4465657,9.1635362,5.0,29.0,,"Via Eugenio Villoresi, 26, Milano","gym,point_of_interest,health,establishment",OPERATIONAL,milan,2026-02-06T15:10:09.897910
ChIJMwnkbPLDhkcRSBVv77F392c,CrossFit Darsena,gym,45.4448744,9.166278699999998,4.8,84.0,,"Viale Cassala, 61, Milano","gym,point_of_interest,health,establishment",OPERATIONAL,milan,2026-02-06T15:10:09.897919
ChIJCaJxPe7DhkcRf3cC5ncwK9M,Centro Culturale Anantamatra,gym,45.446857,9.1654068,5.0,13.0,,"Via Carlo Torre, 22, Milano","gym,point_of_interest,health,establishment",OPERATIONAL,milan,2026-02-06T15:10:09.897927
ChIJ1XQks4rDhkcRBk0QK_tYHAs,Capoeira Sul da Bahia Asd,gym,45.4478539,9.1686135,4.4,51.0,,"Via Filippo Argelati, 35, Milano","gym,health,point_of_interest,establishment",OPERATIONAL,milan,2026-02-06T15:10:10.024508
ChIJD9w92PXDhkcRC4dkx8Q2iqo,CrossFit Bullams,gym,45.44535,9.1754632,4.8,79.0,,"Via Carlo Darwin, 9, Milano","gym,health,point_of_interest,establishment",OPERATIONAL,milan,2026-02-06T15:10:10.148892
ChIJDVdDsvfDhkcRE2-norxKmac,Centro Studi Yoga,gym,45.4473536,9.176294600000002,4.5,2.0,,"Via Giosuè Borsi, 3, Milano","gym,health,point_of_interest,establishment",OPERATIONAL,milan,2026-02-06T15:10:10.148924
ChIJFWAEQljFhkcR9daM0sS5QY4,Beggi Fitness Studio,gym,45.44455019999999,9.1792617,4.5,2.0,,"Via Giuseppe Meda, 13, Milano","gym,health,point_of_interest,establishment",OPERATIONAL,milan,2026-02-06T15:10:10.148931
ChIJTfSJRgvFhkcRldQmP_XxEgA,Brooklyn Fitboxing Ticinese,gym,45.4450945,9.179762799999999,4.9,135.0,,"Via Ludovico Lazzaro Zamenhof, 7, Milano","gym,health,point_of_interest,establishment",OPERATIONAL,milan,2026-02-06T15:10:10.148936
ChIJl6YKMwDDhkcR56zMgUw8eIM,Parco calisthenics,gym,45.4483328,9.1715388,5.0,1.0,,"Parco di, Via Filippo Argelati, 27, Milano","gym,health,point_of_interest,establishment",OPERATIONAL,milan,2026-02-06T15:10:10.148940
ChIJXbknnQnEhkcRdtgoIhFTegQ,ELEVEN ONE ON ONE TRAINING,gym,45.4451372,9.180179500000001,5.0,3.0,,"Via Ludovico Lazzaro Zamenhof, 11, Milano","gym,health,point_of_interest,establishment",OPERATIONAL,milan,2026-02-06T15:10:10.148944
ChIJE35ZdQnEhkcRwXfog9YxFf0,20Hours Club Brioschi,gym,45.44562799999999,9.180603000000001,3.0,125.0,,"Via Francesco Brioschi, 26, Milano","gym,point_of_interest,health,establishment",OPERATIONAL,milan,2026-02-06T15:10:10.277303
ChIJxdOa5CbFhkcRCRYzAb1KY8Q,Sportyque SSD a R.L.,gym,45.44888439999999,9.1790064,5.0,79.0,,"Via Giuseppe Lagrange, 2, Milano","gym,point_of_interest,health,establishment",OPERATIONAL,milan,2026-02-06T15:10:10.277370
ChIJvU36xnDFhkcRntX_CGHA05U,Virgin Active Milano Bocconi Sport Center,gym,45.44671779999999,9.1884619,3.0,484.0,,"Viale Toscana, 30, Milano","gym,health,point_of_interest,establishment",OPERATIONAL,milan,2026-02-06T15:10:10.446442
ChIJU64tHj7EhkcRgI1R89POJ20,Sensus Club,gym,45.4443782,9.1957258,4.9,76.0,,"Via Pietrasanta, 14, Milano","gym,health,point_of_interest,establishment",OPERATIONAL,milan,2026-02-06T15:10:10.568067
ChIJR-gTWRfEhkcRm2eShefUQ-4,ASD YAMA KARATE CLUB Milano,gym,45.4479699,9.196610800000002,5.0,22.0,,"Via Giulietta Pezzi, 4, Milano","gym,health,point_of_interest,establishment",OPERATIONAL,milan,2026-02-06T15:10:10.568085
ChIJq6r6uBfEhkcRM_1ubRG5GWY,Move Academy - Il tuo benessere dalla nutrizione al movimento,gym,45.4463333,9.199943999999999,5.0,1.0,,"Viale Isonzo, 25, Milano","gym,point_of_interest,health,establishment",CLOSED_TEMPORARILY,milan,2026-02-06T15:10:10.686100
ChIJAQCc1jzEhkcRpsVQP5-JTig,Fitness Store,gym,45.4469822,9.2045508,5.0,1.0,,"Viale Isonzo, 28, Milano","gym,point_of_interest,health,establishment",OPERATIONAL,milan,2026-02-06T15:10:10.686139
ChIJrVgSlyLEhkcR7sRDl2f3b-Q,GetFIT - Via Piacenza,gym,45.4485261,9.203573,4.1,520.0,,"Via Piacenza, 4, Milano","gym,point_of_interest,health,establishment",OPERATIONAL,milan,2026-02-06T15:10:10.829366
ChIJ9ReWZELGhkcRikKw7de9n3E,I Bravi Milano,gym,45.444708,9.212251,,,,"Via Benaco, 1, Milano","gym,point_of_interest,health,establishment",OPERATIONAL,milan,2026-02-06T15:10:10.829395
ChIJHQmtVzrEhkcR1IIN3xZZums,La Caffetteria della Danza,gym,45.4443754,9.209838300000001,5.0,5.0,,"Via Valsugana, 2, Milano","gym,point_of_interest,health,establishment",OPERATIONAL,milan,2026-02-06T15:10:10.829406
ChIJk1N7VLvFhkcReLlB6M0PPQQ,Pilates House Milano,gym,45.44761099999999,9.205028,5.0,19.0,,"Via Adige, 19a/All’interno del cortile, Milano","gym,point_of_interest,health,establishment",OPERATIONAL,milan,2026-02-06T15:10:10.829415
ChIJjTDNo8bFhkcR4c_g4NLSTXQ,Golden Gloves,gym,45.4478823,9.207734300000002,5.0,9.0,,"Via Passo Buole, 6, Milano","gym,point_of_interest,health,establishment",OPERATIONAL,milan,2026-02-06T15:10:10.829423
ChIJ4x_SglfFhkcRZ81lk9NNRhA,DNR BOXING SCHOOL,gym,45.444575,9.211927,4.9,15.0,,"Via Benaco, 1, Milano","gym,point_of_interest,health,establishment",OPERATIONAL,milan,2026-02-06T15:10:10.829432
ChIJ8Z326UnFhkcR4nyq7CzjpFc,Danger Training Center - Milano,gym,45.444575,9.211927,4.6,22.0,,"Via Benaco, 1, Milano","gym,point_of_interest,health,establishment",OPERATIONAL,milan,2026-02-06T15:10:10.829440
ChIJb6QgjKjGhkcRClyvJZ2ly1c,CrossFit 97 Scalo Romana,gym,45.444575,9.211927,4.9,87.0,,"Via Benaco, 1, Milano","gym,point_of_interest,health,establishment",OPERATIONAL,milan,2026-02-06T15:10:10.829448
ChIJS94CN2PFhkcRb3isdl27PkM,Virgin Active Milano Piazzale Lodi,gym,45.4478553,9.209792,3.9,642.0,,"Corso Lodi, 39, Milano","gym,point_of_interest,health,establishment",OPERATIONAL,milan,2026-02-06T15:10:10.829456
ChIJ5R9X8C3FhkcRhhJQujwExfg,Scorpion Boxing & Calisthenics,gym,45.4454443,9.2153907,5.0,32.0,,"Via Nervesa, 6, Milano","gym,health,point_of_interest,establishment",OPERATIONAL,milan,2026-02-06T15:10:11.475236
ChIJNUNnpq7FhkcRbC1vpBBWZI8,GAMI - Gym Academy Milano,gym,45.44451129999999,9.2157436,4.8,14.0,,"Corso Lodi, 65, Milano","gym,health,point_of_interest,establishment",OPERATIONAL,milan,2026-02-06T15:10:11.475265
ChIJQ4HkKLvFhkcR7A0jI13255c,Bulb Functional - Corso Lodi,gym,45.4469077,9.2127841,5.0,6.0,,"Via Sannio, 18, Milano","gym,health,point_of_interest,establishment",OPERATIONAL,milan,2026-02-06T15:10:11.475275
ChIJOXUeVSzEhkcRWc_e_YX74Mc,Crossfit Officine,gym,45.4465987,9.222950299999997,4.6,132.0,,"Via Giulio Verne, 9, Milano","gym,health,point_of_interest,establishment",OPERATIONAL,milan,2026-02-06T15:10:11.591210
ChIJ35w2AC3EhkcRDxA7ofPwdLc,bhtlab,gym,45.4481731,9.222311399999999,,,,"Via Tertulliano, 70, Milano","gym,health,point_of_interest,establishment",OPERATIONAL,milan,2026-02-06T15:10:11.591240
ChIJmzNJ1OjphkcRNzXA73_NHBU,SPAZIOSTUDIO OLISTICO di Guia A.M.A Cacciandra,gym,45.45290619999999,9.072666999999997,5.0,1.0,,"Via Antonio Mosca, 151, Milano","gym,health,point_of_interest,establishment",OPERATIONAL,milan,2026-02-06T15:10:12.733693
ChIJuQnez2rChkcR3DmTK0zfcjs,Pilates Corsico,gym,45.444916,9.105640000000001,5.0,51.0,,"Via Alessandro Volta, 18, Corsico","gym,health,point_of_interest,establishment",OPERATIONAL,milan,2026-02-06T15:10:12.909158
ChIJA2PUcTvChkcRIMSiQA9YeCc,Fit4Fight,gym,45.452601,9.1167948,4.9,121.0,,"Via Bisceglie, 74, Milano","gym,health,point_of_interest,establishment",OPERATIONAL,milan,2026-02-06T15:10:13.059110
ChIJ8TTvZ1zDhkcRHaAfJQcgw08,Anytime Fitness Milano Bisceglie,gym,45.4530289,9.1160736,3.7,33.0,,"Via Bisceglie, 68, Milano","gym,health,point_of_interest,establishment",OPERATIONAL,milan,2026-02-06T15:10:13.059167
ChIJkfQKyTPChkcRtKoWE3dkqsI,A.S.D. P.G. Milano Gym,gym,45.4508983,9.127909599999999,4.2,23.0,,"Via dei Narcisi, 5, Milano","gym,point_of_interest,health,establishment",OPERATIONAL,milan,2026-02-06T15:10:13.184490
ChIJZXsscIXPhkcRHyQaKvHpqwQ,Budosan Polisportiva,gym,45.4506678,9.1292528,4.7,3.0,,"Via dei Narcisi, Milano","gym,point_of_interest,health,establishment",OPERATIONAL,milan,2026-02-06T15:10:13.297748
ChIJ8yzTsuDDhkcRJPEK03EyRFk,Quality For Life,gym,45.4509723,9.140101399999999,4.6,12.0,,"Via Lorenteggio, 147, Milano","gym,health,point_of_interest,establishment",OPERATIONAL,milan,2026-02-06T15:10:13.417140
ChIJMYTtYwDDhkcRnPqkdJsy8pA,FITBLESS MILANO - “La tua palestra a casa nostra”,gym,45.4502026,9.136794799999999,5.0,22.0,,"Via Lorenteggio, 134, Milano","gym,health,point_of_interest,establishment",OPERATIONAL,milan,2026-02-06T15:10:13.417163
ChIJ--9VJOLDhkcRRj-HadF9rzc,"MarySoul Yoga - centro yoga a Milano, yoga con i gatti",gym,45.4521662,9.1376929,5.0,59.0,,"Via Antonio Panizzi, 6, Milano","gym,health,point_of_interest,establishment",OPERATIONAL,milan,2026-02-06T15:10:13.417169
ChIJh7yRc4LDhkcRN3XBVSm0lzU,Skills Boxe,gym,45.4512114,9.141139800000001,5.0,4.0,,"Via Lorenteggio, 139, Milano","gym,health,point_of_interest,establishment",OPERATIONAL,milan,2026-02-06T15:10:13.417174
ChIJsV2-5MXDhkcRyAEX9xrnU1k,Skills Training Lab,gym,45.4512114,9.141139800000001,5.0,31.0,,"Via Lorenteggio, 139, Milano","gym,health,point_of_interest,establishment",OPERATIONAL,milan,2026-02-06T15:10:13.417178
ChIJI_ZT5YDDhkcRQ060InKHnxQ,Criotraining Milano,gym,45.44962969999999,9.1467413,5.0,58.0,,"Via Giacinto Bruzzesi, 35A, Milano","gym,health,point_of_interest,establishment",OPERATIONAL,milan,2026-02-06T15:10:13.546966
ChIJwfCHBdXDhkcRak0g9JB3H10,20Hours Club Vespri Siciliani,gym,45.4519897,9.145752,3.3,59.0,,"Via Vespri Siciliani, 70, Milano","gym,health,point_of_interest,establishment",OPERATIONAL,milan,2026-02-06T15:10:13.546995
ChIJyYMfztzDhkcRBCtVcq0QUjg,Tonic Milano Giambellino,gym,45.451783,9.152869299999999,3.9,956.0,,"Via Giambellino, 5, Milano","gym,point_of_interest,health,establishment",OPERATIONAL,milan,2026-02-06T15:10:13.671942
ChIJaXQKyXfDhkcRSEJXuaLSi1w,Elev8,gym,45.4510285,9.1492261,5.0,27.0,,"Via Giambellino, 34, Milano","gym,point_of_interest,health,establishment",OPERATIONAL,milan,2026-02-06T15:10:13.671980
ChIJrcnVTNvDhkcRUaqd7naScSQ,COZY - The Family Hub,gym,45.4502496,9.1522746,,,,"Via Savona, 97, Milano","gym,point_of_interest,health,establishment",OPERATIONAL,milan,2026-02-06T15:10:13.671991
ChIJe9OxEbHDhkcR37jcG5fUlqg,Jivamukti Yoga Milan,gym,45.450464,9.152142000000001,5.0,3.0,,"Via Savona, 96, Milano","gym,point_of_interest,health,establishment",OPERATIONAL,milan,2026-02-06T15:10:13.671999
ChIJo2a3GOfDhkcRHjDgrvieheY,YAM YOGA Milano,gym,45.45182399999999,9.1564649,5.0,19.0,,"Via Savona, Milano","gym,health,point_of_interest,establishment",CLOSED_TEMPORARILY,milan,2026-02-06T15:10:13.806504
ChIJFYH5QWTDhkcRP4AEngum1jI,Meg Studio Pilates,gym,45.45114239999999,9.1594462,5.0,2.0,,"Via Tortona, 68, Milano","gym,health,point_of_interest,establishment",OPERATIONAL,milan,2026-02-06T15:10:13.806547
ChIJd8bIi-bDhkcRC5aCNFxe-48,Fitclass,gym,45.4531985,9.161372899999998,4.7,41.0,,"Via Savona, 45, Milano","gym,point_of_interest,health,establishment",OPERATIONAL,milan,2026-02-06T15:10:14.486840
ChIJL2ENCfDDhkcRJJLWLBAIWkk,Sara Ventura,gym,45.4500994,9.168539099999998,4.9,120.0,,"Ripa di Porta Ticinese, 75, Milano","gym,point_of_interest,health,establishment",OPERATIONAL,milan,2026-02-06T15:10:14.621283
ChIJ_bHzh0bDhkcRFnPAEb1Ay9w,Bulb Functional - Porta Genova,gym,45.4514873,9.169972,5.0,28.0,,"Via Valenza, 5, Milano","gym,point_of_interest,health,establishment",OPERATIONAL,milan,2026-02-06T15:10:14.621343
ChIJY_1Tw53DhkcRVwcLDW5RVu0,Yoga Body and Mind,gym,45.4520993,9.170460799999999,5.0,51.0,,"Via Casale, 3a, Milano","gym,point_of_interest,health,establishment",OPERATIONAL,milan,2026-02-06T15:10:14.621353
ChIJSQN76kbDhkcRGeBAaOQjrpM,Core Pilates Navigli,gym,45.451862,9.171571999999998,4.9,26.0,,"Alzaia Naviglio Grande, 42, Milano","gym,point_of_interest,health,establishment",OPERATIONAL,milan,2026-02-06T15:10:14.621362
ChIJiXBIaJPDhkcReftUD7MTKgo,WeMove Lab,gym,45.4512651,9.1731991,4.8,18.0,,"Via, Ripa di Porta Ticinese, 45, Milano","gym,point_of_interest,health,establishment",OPERATIONAL,milan,2026-02-06T15:10:14.621374
ChIJ_7rK2_nDhkcREjVPkeUM4Oo,Gym & Shiatsu,gym,45.4502855,9.1748806,4.9,19.0,,"Via Mario Fusetti, 14, Milano","gym,health,point_of_interest,establishment",OPERATIONAL,milan,2026-02-06T15:10:14.770413
ChIJOfjPGPjDhkcR4bvOchJ-hAo,Gyrotonic Milano,gym,45.4497671,9.177764100000001,4.8,6.0,,"Via Ascanio Sforza, 21, Milano","gym,health,point_of_interest,establishment",OPERATIONAL,milan,2026-02-06T15:10:14.770435
ChIJ76jzbfjDhkcRjFGXdS8sfQA,Anytime Fitness Milano Corso Manusardi,gym,45.4510421,9.1785936,4.0,186.0,,"Corso Luigi Manusardi, 10, Milano","gym,health,point_of_interest,establishment",OPERATIONAL,milan,2026-02-06T15:10:14.770442
ChIJkb2gYSLDhkcROmc0BVCn740,Sportyque Gallery,gym,45.4494275,9.177700800000002,5.0,2.0,,"Via Ascanio Sforza, 29, Milano","gym,health,point_of_interest,establishment",OPERATIONAL,milan,2026-02-06T15:10:14.770450
ChIJ6ZEKzvvDhkcR8S8lGaWHSfE,Juvenilia,gym,45.4524992,9.1732553,3.9,8.0,,"Via Corsico, 6, Milano","gym,health,point_of_interest,establishment",OPERATIONAL,milan,2026-02-06T15:10:14.770456
ChIJG0hW1OzFhkcRdok2tsEWOZA,Inthemood pilates,gym,45.4495637,9.1799386,4.9,39.0,,"Corso San Gottardo, Milano","gym,health,point_of_interest,establishment",OPERATIONAL,milan,2026-02-06T15:10:14.770462
ChIJozwO7gbEhkcRO4Vpw9MZgTk,Total Studio - Viale Col di Lana,gym,45.4520019,9.183690499999997,5.0,28.0,,"Viale Col di Lana, 12, Milano","gym,health,point_of_interest,establishment",OPERATIONAL,milan,2026-02-06T15:10:14.923179
ChIJJYiakQbEhkcRFoWm4rKyyLY,Milan Pole Dance Studio - Milano,gym,45.45202,9.184203,4.8,85.0,,"Viale Col di Lana, 14, Milano","gym,health,point_of_interest,establishment",OPERATIONAL,milan,2026-02-06T15:10:14.923199
ChIJc7mJ1QfEhkcRUlXbSjuMhos,Ankida corsi di Yoga e Tai Chi Chuan,gym,45.4491693,9.1814833,4.7,18.0,,"Via Gentilino, 11, Milano","gym,health,point_of_interest,establishment",OPERATIONAL,milan,2026-02-06T15:10:14.923205
ChIJ5wMPwvjDhkcRgG2xqIegoOw,Fitness Factory Palestre Srl,gym,45.4531926,9.178261799999998,4.0,2.0,,"Via Pietro Panzeri, 10, Milano","gym,health,point_of_interest,establishment",CLOSED_TEMPORARILY,milan,2026-02-06T15:10:14.923210
ChIJnfwN0uXDhkcRI84EP4KYwZg,Crossfit Dunamis,gym,45.4530603,9.1779981,,,,"Viale Gabriele D'Annunzio, 27, Milano","gym,health,point_of_interest,establishment",OPERATIONAL,milan,2026-02-06T15:10:14.923216
ChIJ2YwYGyXDhkcRqn8roRRl91Q,DUNAMIS Darsena - Palestra delle Arti,gym,45.45307649999999,9.1779022,4.8,73.0,,"Viale Gabriele D'Annunzio, 27, Milano","gym,health,point_of_interest,establishment",OPERATIONAL,milan,2026-02-06T15:10:14.923220
ChIJDbh2bDPFhkcR5o0qiw8LAVI,Balance & Flow Pilates e Yoga,gym,45.4526735,9.187091700000002,5.0,58.0,,"Corso Italia, 49, Milano","gym,health,point_of_interest,establishment",OPERATIONAL,milan,2026-02-06T15:10:15.064615
ChIJmV8RgwTEhkcRIY_XbT88Ap8,Personal Trainer Milano - REVERBIA Studio Bocconi,gym,45.4530654,9.189414999999999,5.0,131.0,,"Via San Martino, 14, Milano","gym,health,point_of_interest,establishment",OPERATIONAL,milan,2026-02-06T15:10:15.064673
ChIJseOCSxvEhkcR5I1HICEP3jg,FitGirl Milano,gym,45.45216990000001,9.1916194,4.1,40.0,,"Viale Beatrice d'Este, 15, Milano","gym,health,point_of_interest,establishment",OPERATIONAL,milan,2026-02-06T15:10:15.064685
ChIJn6Ik8RnEhkcRaRWI-DzKgq4,The Art Of Pilates,gym,45.4487414,9.196582000000001,5.0,21.0,,"Via Giovanni Bellezza, 8A, Milano","gym,health,point_of_interest,establishment",OPERATIONAL,milan,2026-02-06T15:10:15.196637
ChIJIQs_9xvEhkcRVxCDNNyzUgc,Studio Gem - Danza - Ballo - Fitness,gym,45.45262109999999,9.1965599,4.8,200.0,,"Corso di Porta Vigentina, 35, Milano","gym,health,point_of_interest,establishment",OPERATIONAL,milan,2026-02-06T15:10:15.196689
ChIJDedJMRrEhkcRicmq-XqAJ_A,Next Level Trainers,gym,45.45001329999999,9.195449,5.0,2.0,,"Via Cesare Balbo, 4, Milano","physiotherapist,gym,health,point_of_interest,establishment",OPERATIONAL,milan,2026-02-06T15:10:15.196712
ChIJCzNP5WLFhkcR1GhIGPHKGAg,Palestra Active24,gym,45.45031259999999,9.199171299999998,4.0,78.0,,"Via Altaguardia, 4, Milano","gym,health,point_of_interest,establishment",OPERATIONAL,milan,2026-02-06T15:10:15.196723
ChIJO4596xjEhkcRo8oxP3ulHgU,Urban Fitness Milano Viale Sabotino (M3 Porta Romana),gym,45.45088579999999,9.201060199999999,4.4,28.0,,"Viale Sabotino, 20, Milano","gym,point_of_interest,health,establishment",OPERATIONAL,milan,2026-02-06T15:10:15.336374
ChIJ4YPr4ddp8AgRxwnuWamOyP8,Centro Medico Maggi,gym,45.45119039999999,9.1994403,,,,"Viale Sabotino, 15, Milano","gym,doctor,physiotherapist,point_of_interest,health,establishment",OPERATIONAL,milan,2026-02-06T15:10:15.336425
ChIJD0D4IgDFhkcR-HZ7lbUgxag,gym,gym,45.44864149999999,9.2030646,,,,"Via Crema, 19, Milano","gym,point_of_interest,health,establishment",OPERATIONAL,milan,2026-02-06T15:10:15.336436
ChIJtylWzrvFhkcR_LqSpDVdho4,La Casa Verde Asd,gym,45.4489185,9.204450699999999,5.0,23.0,,"Via Piacenza, 12, Milano","gym,point_of_interest,health,establishment",OPERATIONAL,milan,2026-02-06T15:10:15.336450
ChIJ__9PFyLEhkcRCh7MWX8Vfn4,Web Stars Fitness,gym,45.4514599,9.203978,,,,"Corso Lodi, 5, Milano","gym,point_of_interest,health,establishment",OPERATIONAL,milan,2026-02-06T15:10:15.336459
ChIJh2yCJSLEhkcRPYibdIB1LKw,Studio Feldenkrais di Borella Sebastiano Milano,gym,45.451459,9.205034599999998,5.0,1.0,,"Via Bernardino Corio, 6, Milano","gym,point_of_interest,health,establishment",OPERATIONAL,milan,2026-02-06T15:10:15.336470
ChIJNUKBDiLEhkcRcNXyzpnWFcU,Miopilates di Barbara Dall'Aglio,gym,45.4520654,9.2045155,5.0,8.0,,"Via Lodovico Muratori, 7, Milano","gym,point_of_interest,health,establishment",OPERATIONAL,milan,2026-02-06T15:10:15.336478
ChIJJ59YtSPEhkcRPCVKWKJrQaI,Iyengar Yoga Institute Milano - P.Romana,gym,45.45115240000001,9.206299800000002,5.0,11.0,,"Via Francesco Burlamacchi, 1, Milano","gym,point_of_interest,health,establishment",OPERATIONAL,milan,2026-02-06T15:10:15.496121
ChIJe5EvXp3GhkcRofkiSwtrNXY,Accademia del Karate,gym,45.4490364,9.2092752,5.0,12.0,,"Via Friuli, 8, Milano","gym,point_of_interest,health,establishment",OPERATIONAL,milan,2026-02-06T15:10:15.496178
ChIJs97QfSTEhkcRO7CCD39QDYM,La Tigre Nera ACSD Savate Kickboxing Boxe Jeet Kune Do Trattamenti e Massaggi Personal Trainer,gym,45.4496483,9.2089141,5.0,93.0,,"Strada della Carità, 7b, Milano","gym,point_of_interest,health,establishment",OPERATIONAL,milan,2026-02-06T15:10:15.496192
ChIJSScGiyTEhkcRvn5fNTpE57k,Plus One Gym Concept,gym,45.44897230000001,9.209857900000001,4.8,155.0,,"Via Friuli, 8A, Milano","gym,physiotherapist,point_of_interest,health,establishment",OPERATIONAL,milan,2026-02-06T15:10:15.496203
ChIJq6r6sKjGhkcRVC5jhiZQfa4,Trinity Pilates,gym,45.4516331,9.2071048,3.5,8.0,,"Via Francesco Burlamacchi, 16, Milano","gym,point_of_interest,health,establishment",OPERATIONAL,milan,2026-02-06T15:10:15.496214
ChIJNx1KsKjGhkcRlQ0KqC3-A7g,Studio Pilates Saragat,gym,45.4516331,9.2071048,5.0,25.0,,"Via Francesco Burlamacchi, 16, Milano","gym,point_of_interest,health,establishment",OPERATIONAL,milan,2026-02-06T15:10:15.496224
ChIJQwFILHPFhkcRXUxomRmZHFo,Total Studio - via Sigieri,gym,45.4525874,9.209587899999997,,,,"Via Sigieri, 6 All’interno del cortile - secondo piano, Milano","gym,point_of_interest,health,establishment",OPERATIONAL,milan,2026-02-06T15:10:15.496234
ChIJRfj36H7FhkcR9L6kZR8MG-g,Personal Trainer Milano - REVERBIA Studio Porta Romana,gym,45.4527843,9.2092476,5.0,43.0,,"Via Gerolamo Tiraboschi, 8, Milano","gym,point_of_interest,health,establishment",OPERATIONAL,milan,2026-02-06T15:10:15.496243
ChIJU4lC4iXEhkcR1oarB7yEJrU,Boxe Ursus,gym,45.4513317,9.2136549,4.8,95.0,,"Viale Umbria, 36, Milano","gym,health,point_of_interest,establishment",OPERATIONAL,milan,2026-02-06T15:10:15.639188
ChIJhS-tOh_EhkcRqnVhqLVS7Vg,Bali Yoga - Corsi Yoga Milano Porta Romana,gym,45.4518508,9.211477699999998,4.9,54.0,,"Via Friuli, 26, Milano","gym,health,point_of_interest,establishment",OPERATIONAL,milan,2026-02-06T15:10:15.639216
ChIJoVbKXybEhkcRutjqybo5DfI,Body Balance Center Milan,gym,45.452681,9.212348,5.0,49.0,,"Via Contardo Ferrini, 11, Milano","gym,health,point_of_interest,establishment",OPERATIONAL,milan,2026-02-06T15:10:15.639224
ChIJk8LdMynEhkcRm4YsnKM1Q-U,CERDI Kala Yoga asd,gym,45.4512674,9.2182763,4.9,18.0,,"Via Tito Livio, 23, Milano","gym,health,point_of_interest,establishment",OPERATIONAL,milan,2026-02-06T15:10:15.639230
ChIJSxPfGmb-gEcRxiDkIYZ7ino,Spazio Shanti,gym,45.4513237,9.214352000000002,4.6,10.0,,"Viale Umbria, 36, Milano","gym,health,point_of_interest,establishment",OPERATIONAL,milan,2026-02-06T15:10:15.639237
ChIJZ6pIGQDFhkcR0XmuSBTsS0k,Zephir Pilates,gym,45.4490545,9.21372,,,,"Via Lattanzio, 9, Milano","gym,health,point_of_interest,establishment",OPERATIONAL,milan,2026-02-06T15:10:15.639243
ChIJjQkqPfrFhkcR0YyKwqGm4fs,Lady Pilates,gym,45.4508532,9.2125154,,,,"Via Lodovico Muratori, 55, Milano","gym,health,point_of_interest,establishment",OPERATIONAL,milan,2026-02-06T15:10:15.639249
ChIJv4yEf9_FhkcRlm3BYEEv3f0,Tumminelli Romana Basket,gym,45.45240870000001,9.213213000000001,4.0,5.0,,"Via Contardo Ferrini, 21, Milano","gym,health,point_of_interest,establishment",OPERATIONAL,milan,2026-02-06T15:10:15.639256
ChIJx2ly-nzFhkcRg1pT0CRa3EQ,Dream Believe Fight A.S.D.,gym,45.45026259999999,9.2216873,4.9,26.0,,"Via Rodolfo Carabelli, 4, Milano","gym,health,point_of_interest,establishment",OPERATIONAL,milan,2026-02-06T15:10:15.761094
ChIJQVEPht_FhkcRuy9EK2wKvsE,Pilates Evolution Asd,gym,45.4518555,9.247758199999998,4.8,60.0,,"Via Mecenate, 76 B - 32/34, Milano","gym,health,point_of_interest,establishment",OPERATIONAL,milan,2026-02-06T15:10:16.570905
ChIJN31hcN_FhkcRLF1vppWWrEc,Centro Sportivo Bonacossa,gym,45.4529125,9.2466946,3.7,287.0,,"Via Mecenate, 74, Milano","gym,health,point_of_interest,establishment",OPERATIONAL,milan,2026-02-06T15:10:16.570949
ChIJF-VYeArGhkcRYfYYLF7NfbU,Rockspot,gym,45.4530757,9.2521057,4.5,876.0,,"Via Gaudenzio Fantoli, 11, Milano","gym,health,point_of_interest,establishment",OPERATIONAL,milan,2026-02-06T15:10:16.695659
ChIJT4vA8aXDhkcRQVkG4yNrDyk,Kreo - Associazione Sportiva Dilettantistica e Culturale,gym,45.4538233,9.1189711,4.9,65.0,,"Via Giuseppe Carozzi, 30, Milano","gym,health,point_of_interest,establishment",OPERATIONAL,milan,2026-02-06T15:10:17.958771
ChIJj6CXYCTChkcRrj_CWsfgjek,ABC Palestre,gym,45.456975,9.1185909,4.1,229.0,,"Via Zurigo, 20, Milano","gym,health,point_of_interest,establishment",OPERATIONAL,milan,2026-02-06T15:10:17.958800
ChIJ17ZnXCTChkcRjgUSctG0cO8,Scuola di Danza&Pilates,gym,45.45697529999999,9.119085599999998,5.0,20.0,,"Via Zurigo, 16, Milano","gym,health,point_of_interest,establishment",OPERATIONAL,milan,2026-02-06T15:10:17.958810
ChIJoyP7YajDhkcRXwZ0ADOos1g,"GOLARSA SPORT CENTER - Tennis, Padel & Fitness Milano",gym,45.4560704,9.127052500000001,4.1,211.0,,"Via dei Ciclamini, 18, Milano","gym,bar,point_of_interest,health,establishment",OPERATIONAL,milan,2026-02-06T15:10:18.104982
ChIJC09dQTzDhkcR3PMJh-iTNWQ,Golarsa Academy Fitness - Palestra,gym,45.4560704,9.127052500000001,4.4,8.0,,"Via dei Ciclamini, 18, Milano","gym,point_of_interest,health,establishment",OPERATIONAL,milan,2026-02-06T15:10:18.105014
ChIJFQA0pyzChkcRs--UIPNlnBw,Centro Sportivo Tuberose,gym,45.457607,9.133856200000002,4.0,181.0,,"Via Gio' Ponti, 1, Milano","gym,health,point_of_interest,establishment",OPERATIONAL,milan,2026-02-06T15:10:18.311875
ChIJUQNZntPDhkcRgungjebBxWY,Milano Karate GESSHINKAI,gym,45.4569897,9.138035000000002,4.3,6.0,,"Via Arzaga, 10, Milano","gym,health,point_of_interest,establishment",OPERATIONAL,milan,2026-02-06T15:10:18.311924
ChIJ2RsKRtrDhkcRk2wzdZTBIoc,Action Fit Tolstoi,gym,45.4552935,9.147837599999999,3.9,464.0,,"Via Leone Tolstoi, 59, Milano","gym,health,point_of_interest,establishment",OPERATIONAL,milan,2026-02-06T15:10:18.430122
ChIJpXNV1NDDhkcRgpSz9BE7Beg,Namaste,gym,45.4567551,9.1435896,,,,"Via Luigi Soderini, Milano","gym,health,point_of_interest,establishment",OPERATIONAL,milan,2026-02-06T15:10:18.430147
ChIJwTutYynDhkcRNgWl8WnsNhc,Pilates Hub Milano,gym,45.4539583,9.148215,5.0,9.0,,"Via Lorenteggio, 24, Milano","gym,health,point_of_interest,establishment",OPERATIONAL,milan,2026-02-06T15:10:18.430153
ChIJK_654dnDhkcR43LG8gHkUkw,ASD Centro Ariel,gym,45.457719,9.146797099999997,5.0,7.0,,"Via Luigi Soderini, 1, Milano","gym,health,point_of_interest,establishment",OPERATIONAL,milan,2026-02-06T15:10:19.062693
ChIJW-XkQCrDhkcRHemWPzawjms,Daruma.Pro - Palestra,gym,45.45424930000001,9.150387799999999,5.0,50.0,,"in fondo al cortile condominiale, Via Lorenteggio, a destra, 31, Milano","gym,health,point_of_interest,establishment",OPERATIONAL,milan,2026-02-06T15:10:19.062752
ChIJUaC8D9HDhkcREBGlf9YQA0E,Brooklyn Fitboxing Piazza napoli,gym,45.45422,9.15338,5.0,84.0,,"Viale Misurata, 65, Milano","gym,health,point_of_interest,establishment",OPERATIONAL,milan,2026-02-06T15:10:19.062765
ChIJ8Y8ReefDhkcRGth91jt2jdM,Glorious Fight Gym,gym,45.4536752,9.1574885,4.8,38.0,,"Via Andrea Solari, 56, Milano","gym,health,point_of_interest,establishment",OPERATIONAL,milan,2026-02-06T15:10:19.195546
ChIJxzpmA97DhkcRj5msPVWisQQ,Amrita Yoga Studio,gym,45.45635000000001,9.157538200000001,5.0,4.0,,"Via Stendhal, 58, Milano","gym,health,point_of_interest,establishment",OPERATIONAL,milan,2026-02-06T15:10:19.195574
ChIJ8yzTsuDDhkcRzueonCT_mRI,L'Etude De Bleuciel - SottoSopra ASD,gym,45.4557619,9.1585466,5.0,15.0,,"Via Cola di Rienzo, 26, Milano","gym,health,point_of_interest,establishment",OPERATIONAL,milan,2026-02-06T15:10:19.195585
ChIJ8SzTsuDDhkcRaty94VfIcwo,SottoSopra ASD,gym,45.4557665,9.1585475,5.0,1.0,,"Via Cola di Rienzo, 26, Milano","gym,health,point_of_interest,establishment",OPERATIONAL,milan,2026-02-06T15:10:19.195594
ChIJKwZDnxzDhkcRAn_9HwTazAM,"Carmen Gyrotonic Milano Zona Tortona, Via Stendhal 49",gym,45.4552703,9.157738499999999,5.0,6.0,,"Via Stendhal, 49, Milano","gym,health,point_of_interest,establishment",OPERATIONAL,milan,2026-02-06T15:10:19.195604
ChIJu0MXLFvDhkcRV00xgKG6LH0,BEREADY Palestra,gym,45.4578964,9.155718099999998,4.0,1.0,,"Piazzale Giovanni de Agostini, 8, Milano","gym,health,point_of_interest,establishment",OPERATIONAL,milan,2026-02-06T15:10:19.195614
ChIJJT7j_ePDhkcRSvB63HUhb6s,Solaris Fitness Center,gym,45.4556711,9.163509800000002,4.2,97.0,,"Via Andrea Solari, 14, Milano","gym,health,point_of_interest,establishment",OPERATIONAL,milan,2026-02-06T15:10:19.326963
ChIJywN4PZnDhkcRv0LNWA_3QDw,Your Personal Gym - Giulio Porta Personal and Pilates Training Studio,gym,45.45490119999999,9.166010399999998,5.0,31.0,,"Via Savona, 26/A, Milano","gym,health,point_of_interest,establishment",OPERATIONAL,milan,2026-02-06T15:10:19.326982
ChIJ4aqtnX3DhkcRuOfapgOWnL8,Joy moves asd,gym,45.45706570000001,9.163238999999999,5.0,38.0,,"Via Valparaiso, 9, Milano","gym,health,point_of_interest,establishment",OPERATIONAL,milan,2026-02-06T15:10:19.326987
ChIJWX7QfuPDhkcRDh52CTNBV00,Go To Joe - Pilates Studio,gym,45.4553137,9.1663548,5.0,8.0,,"Via Montevideo, 5, Milano","gym,health,point_of_interest,establishment",OPERATIONAL,milan,2026-02-06T15:10:19.326992
ChIJ-Smv8o_DhkcRebEcZ6c7M8A,"FITclass Pilates Reformer, via Voghera 9A",gym,45.4539687,9.1671474,,,,"Via Voghera, 9A, Milano","gym,health,point_of_interest,establishment",OPERATIONAL,milan,2026-02-06T15:10:19.326999
ChIJKybKtELDhkcRX63l6lAlEWs,AB Coaching,gym,45.4576562,9.162033599999999,,,,"Via Caravaggio, 16, Milano","gym,health,point_of_interest,establishment",OPERATIONAL,milan,2026-02-06T15:10:19.327007
ChIJAQCQuPzDhkcRJufOH88gjpM,Hot Yoga Style,gym,45.45607200000001,9.170290200000002,5.0,8.0,,"Via Savona, 1, Milano","gym,point_of_interest,health,establishment",OPERATIONAL,milan,2026-02-06T15:10:19.469479
ChIJN_iFLv3DhkcR8vfDRvHpbjE,Yomoda,gym,45.45770949999999,9.1697995,4.8,24.0,,"Viale Papiniano, 42, Milano","gym,point_of_interest,health,establishment",OPERATIONAL,milan,2026-02-06T15:10:19.469549
ChIJ-ZJ56_zDhkcRmgJsSPXz4TQ,Urban Fitness Milano Coni Zugna (M2 Porta Genova),gym,45.45616749999999,9.171102000000001,4.6,25.0,,"Viale Coni Zugna, 63, Milano","gym,point_of_interest,health,establishment",OPERATIONAL,milan,2026-02-06T15:10:19.469558
ChIJa7eyx_3DhkcRMqnWguGCfeE,Centro Yoga Maya,gym,45.45770949999999,9.1697995,5.0,2.0,,"Viale Papiniano, 42, Milano","gym,point_of_interest,health,establishment",OPERATIONAL,milan,2026-02-06T15:10:19.469565
ChIJHXZzr8TDhkcR-o4DGON4fcU,Diva Pilates Studio,gym,45.4563193,9.1668047,,,,"Via Andrea Solari, 11, Milano","gym,point_of_interest,health,establishment",OPERATIONAL,milan,2026-02-06T15:10:19.469574
ChIJD9ElQ3jDhkcR6s65bMpQDeU,BauFit Milano,gym,45.4559822,9.170999199999997,5.0,1.0,,"Viale Coni Zugna, 58, Milano","gym,point_of_interest,health,establishment",OPERATIONAL,milan,2026-02-06T15:10:19.469637
ChIJmyDHFeLDhkcRtjL9VdQvCrw,SUERTE PILATES,gym,45.4568422,9.1696634,,,,"Viale Coni Zugna, 50, Milano","gym,point_of_interest,health,establishment",OPERATIONAL,milan,2026-02-06T15:10:19.469651
ChIJvT_5jbnDhkcRA_PGEzK1TAc,Alessandra MARINUZZI,gym,45.4568422,9.1696634,,,,"Viale Coni Zugna, 50, Milano","gym,point_of_interest,health,establishment",OPERATIONAL,milan,2026-02-06T15:10:19.469659
ChIJKYFlYY_DhkcRkcyDlCm0LSw,BODY FACTORY,gym,45.4568506,9.169640900000001,5.0,16.0,,"Viale Coni Zugna, 50, Milano","gym,point_of_interest,health,establishment",OPERATIONAL,milan,2026-02-06T15:10:19.469666
ChIJxQnF9jjDhkcRqrvm5iEHQiA,NATKED - Movement Studios,gym,45.4555128,9.172079,4.8,6.0,,"Viale Coni Zugna, 71, Milano","gym,point_of_interest,health,establishment",OPERATIONAL,milan,2026-02-06T15:10:19.469672
ChIJYdWtu3XDhkcR4szpi-cFlPo,Sonia Tedeschi Pilates,gym,45.4545219,9.1731755,5.0,16.0,,"Viale Gorizia, 6, Milano","gym,point_of_interest,health,establishment",OPERATIONAL,milan,2026-02-06T15:10:19.469678
ChIJ17xNrBfDhkcRwMxVAD4HvgI,Alma Yoga Studio,gym,45.45748709999999,9.1683251,,,,"Via Andrea Solari, 2 A, Milano","gym,point_of_interest,health,establishment",OPERATIONAL,milan,2026-02-06T15:10:19.469684
ChIJnZPbw_jDhkcR07t1Yz8PDSI,20Hours Club,gym,45.4534951,9.1781894,2.9,95.0,,"Via Pietro Panzeri, 10, Milano","gym,health,point_of_interest,establishment",OPERATIONAL,milan,2026-02-06T15:10:19.607194
ChIJqS3cXP7DhkcRD-0Btyhc3y0,THE Studio® Pilates Milano | Corsi e Lezioni di Pilates,gym,45.4570297,9.177149499999999,4.5,24.0,,"Via Conca del Naviglio, 18, Milano","gym,health,point_of_interest,establishment",OPERATIONAL,milan,2026-02-06T15:10:19.607224
ChIJ5TrSYo7DhkcRTuWTrBINpZM,Bulb Body & Mind - Darsena,gym,45.4556827,9.176028400000002,4.8,8.0,,"Via Galeazzo Alessi, 4/6, Milano","gym,health,point_of_interest,establishment",OPERATIONAL,milan,2026-02-06T15:10:19.607234
ChIJ9XYVJvzDhkcRSgcvEUYqTGo,Top Fit Milano,gym,45.45624170000001,9.174962299999999,4.3,8.0,,"Via Gaudenzio Ferrari, 2, Milano","gym,health,point_of_interest,establishment",OPERATIONAL,milan,2026-02-06T15:10:19.607241
ChIJo_zGTZPDhkcRe8K71RxUyjI,Carlopietropoli,gym,45.4565142,9.1751595,,,,"Corso Genova, 23, Milano","gym,health,point_of_interest,establishment",OPERATIONAL,milan,2026-02-06T15:10:19.607247
ChIJhzypqN3DhkcRkGAljntCVGk,Be Balance - Centro fitness e Personal Trainer Milano,gym,45.4565574,9.1728343,5.0,10.0,,"Viale Papiniano, 59, Milano","gym,health,point_of_interest,establishment",OPERATIONAL,milan,2026-02-06T15:10:19.607253
ChIJj3yOggfEhkcRKbucZCuohNA,Artè Danza e Capoeira,gym,45.4533575,9.183063600000002,5.0,17.0,,"Via Sambuco, 5/3, Milano","gym,health,point_of_interest,establishment",OPERATIONAL,milan,2026-02-06T15:10:19.757995
ChIJa1CCp_jDhkcRlWfz2jG2VaU,Art of Living Milano Navigli Darsena / Happiness Center,gym,45.4537493,9.178994699999997,5.0,29.0,,"ingresso, Corso di Porta Ticinese 106, Vicolo Calusca, 10, Milano","gym,health,point_of_interest,establishment",OPERATIONAL,milan,2026-02-06T15:10:19.758025
ChIJlbtZM9fHhkcRLDXpmSOIg9o,"Stefania Floreani - Kundalini, Hatha Yoga e Yoga Nidra",gym,45.453801,9.1829393,5.0,41.0,,"Viale Giovanni da Cermenate, 36, Via Calatafimi, 10, Milano","gym,health,point_of_interest,establishment",OPERATIONAL,milan,2026-02-06T15:10:19.758032
ChIJTQeFhf_DhkcRI-O9gS59KiY,Formy Studio,gym,45.4569039,9.1808061,5.0,1.0,,"Corso di Porta Ticinese, 46, Milano","gym,health,point_of_interest,establishment",OPERATIONAL,milan,2026-02-06T15:10:19.758040
ChIJ7SeqTQDEhkcR3NxOkxwyGI4,EffeGibi Perfect Wellness,gym,45.4568736,9.184035999999999,5.0,1.0,,"Via Molino delle Armi, Milano","gym,health,point_of_interest,establishment",OPERATIONAL,milan,2026-02-06T15:10:19.758047
ChIJWVZ6Le7DhkcRXjhMLU25Jps,Pilates Anywhere® | Video Lezioni e Corsi di Pilates Online,gym,45.4569688,9.177205499999998,,,,"Via Conca del Naviglio, 18, Milano","gym,health,point_of_interest,establishment",OPERATIONAL,milan,2026-02-06T15:10:19.758053
ChIJqS3cXP7DhkcRqVFZpyKWCHU,PILATES ITALIA® | Corsi Istruttori e Attrezzi Pilates,gym,45.4569689,9.177205099999998,4.9,27.0,,"Via Conca del Naviglio, 18, Milano","gym,health,point_of_interest,establishment",OPERATIONAL,milan,2026-02-06T15:10:19.758059
ChIJ21ylswPEhkcRAZgyMGG3D7g,Istituto San Celso,gym,45.4555535,9.1887364,4.9,54.0,,"Via Giuseppe Mercalli, 7, Milano","beauty_salon,gym,health,spa,store,point_of_interest,establishment",OPERATIONAL,milan,2026-02-06T15:10:19.906528
ChIJmx1yhfrFhkcR5_L7UK46_jI,Racing Physique Academy,gym,45.4542637,9.189433499999998,,,,"Via Giuseppe Vigoni, 12, Milano","gym,health,point_of_interest,establishment",OPERATIONAL,milan,2026-02-06T15:10:19.906547
ChIJW8bHmp3FhkcRE_wqd7gs1JU,LoYoga Wellness,gym,45.4547449,9.189233600000001,,,,"Via Giuseppe Vigoni, 11, Milano","gym,health,point_of_interest,establishment",OPERATIONAL,milan,2026-02-06T15:10:19.906552
ChIJBVhSgQHEhkcRhNBcP-mGddc,IN|EX Calisthenic + Yoga & Boxing,gym,45.4561086,9.1861752,4.9,100.0,,"Via Molino delle Armi, 7, Milano","gym,health,point_of_interest,establishment",OPERATIONAL,milan,2026-02-06T15:10:19.906562
ChIJPcjWOI7FhkcR6UA2WWJtfJc,FEM Studio - Poliambulatorio e palestra riabilitativa,gym,45.4539394,9.192591000000002,4.8,40.0,,"Via Luigi Anelli, 2, Milano","gym,health,point_of_interest,establishment",OPERATIONAL,milan,2026-02-06T15:10:19.906566
ChIJl0OGWRzEhkcRhgs_wX4zFWE,SATSANG YOGA MILANO,gym,45.45444579999999,9.195422500000001,,,,"Corso di Porta Vigentina, 22, Milano","gym,point_of_interest,health,establishment",OPERATIONAL,milan,2026-02-06T15:10:20.047239
ChIJx1NhkB7EhkcRZSUkxhXmgoY,O. P. I. GYM Boxing Club Milano,gym,45.45417010000001,9.1986122,4.8,63.0,,"Corso di Porta Romana, 116/a, Milano","gym,point_of_interest,health,establishment",OPERATIONAL,milan,2026-02-06T15:10:20.047284
ChIJ6bznox3EhkcRqLiiHzZngBw,enjoy pilates,gym,45.4557696,9.196114699999999,5.0,4.0,,"Corso di Porta Romana, 90, Milano","gym,point_of_interest,health,establishment",OPERATIONAL,milan,2026-02-06T15:10:20.047292
ChIJBVN9ZQ3FhkcRgym8ZSe5Sv0,Studio Pilates GDM,gym,45.4560437,9.195259799999999,5.0,1.0,,"Largo della Crocetta, 2, Milano","gym,point_of_interest,health,establishment",OPERATIONAL,milan,2026-02-06T15:10:20.047303
ChIJhZfWYB3FhkcRGFbJV7i7viQ,Urban Fitness Milano Porta Romana (M3 Crocetta),gym,45.454978,9.197199,4.9,19.0,,"Corso di Porta Romana, 106, Milano","gym,point_of_interest,health,establishment",OPERATIONAL,milan,2026-02-06T15:10:20.047312
ChIJ2w2VEAPFhkcRFFmq0s26j90,Attimo Pilates,gym,45.4567081,9.1950981,5.0,11.0,,"Scuola di Danza del Teatro Carcano, Corso di Porta Romana, 61, Milano","gym,point_of_interest,health,establishment",OPERATIONAL,milan,2026-02-06T15:10:20.047319
ChIJD9ehEqvFhkcRB0c1tyS9CCk,InQuercia - Yoga Sangha,gym,45.4542244,9.198369999999999,4.7,3.0,,"b, Corso di Porta Romana, 116, Milano","gym,point_of_interest,health,establishment",OPERATIONAL,milan,2026-02-06T15:10:20.047335
ChIJfXiaah_EhkcRJQXQAYbYmN0,Scuola di Ashtanga Yoga Milano,gym,45.45334010000001,9.2020855,5.0,41.0,,"Viale Emilio Caldara, 9, Milano","gym,point_of_interest,health,establishment",OPERATIONAL,milan,2026-02-06T15:10:20.178239
ChIJ3bsYVx7EhkcRF0HwxEhzw9I,Divya Center,gym,45.4549938,9.200408399999999,5.0,10.0,,"Via Orti, 12, Milano","gym,point_of_interest,health,establishment",OPERATIONAL,milan,2026-02-06T15:10:20.178282
ChIJ7dFvs_3DhkcRIzhtkukvzhk,Novepassi,gym,45.45503869999999,9.201854099999998,4.8,32.0,,"Via Orti, 18, Milano","gym,point_of_interest,health,establishment",OPERATIONAL,milan,2026-02-06T15:10:20.178289
ChIJq2e2yyHEhkcRmr-rXMeA7iM,Montenero Boxing Club,gym,45.45390889999999,9.2047881,4.9,247.0,,"Via Carlo Botta, 19, Milano","gym,point_of_interest,health,establishment",OPERATIONAL,milan,2026-02-06T15:10:20.178297
ChIJq8sgbSfEhkcR97xLgVNmYE4,Centro Reiky di Emanuela,gym,45.4550695,9.211842700000002,5.0,5.0,,"Via Lucano, 5, Milano","gym,health,point_of_interest,establishment",OPERATIONAL,milan,2026-02-06T15:10:20.306695
ChIJfY2jJCLFhkcRGl2aojyfvT8,microstudiom,gym,45.4534177,9.2099001,5.0,4.0,,"Piazzale Libia, 2, Milano","gym,health,point_of_interest,establishment",OPERATIONAL,milan,2026-02-06T15:10:20.306732
ChIJrWPXEmbHhkcRZQuKWjdjCZY,Pilates e Yoga con Durga Asd,gym,45.4568026,9.2048791,5.0,17.0,,"Viale Monte Nero, 35, Milano","gym,health,point_of_interest,establishment",OPERATIONAL,milan,2026-02-06T15:10:20.306743
ChIJJSLelw_FhkcRpwWnsooR52w,Brooklyn Fitboxing Porta romana,gym,45.4565,9.208850000000002,5.0,69.0,,"Via Bergamo, 14, Milano","gym,health,point_of_interest,establishment",OPERATIONAL,milan,2026-02-06T15:10:20.306752
ChIJF4Lp4ifHhkcRPPh1EQKxLr0,FITINN - Milano Via Bergamo,gym,45.4572967,9.2063993,2.0,29.0,,"Via Bergamo, 4, Milano","gym,health,point_of_interest,establishment",OPERATIONAL,milan,2026-02-06T15:10:20.306760
ChIJu349HaDGhkcRINUJcsoYeg4,Fisaria Physiotherapy center,gym,45.4575279,9.205101599999999,5.0,15.0,,"Viale Regina Margherita, 2, Milano","gym,physiotherapist,health,point_of_interest,establishment",OPERATIONAL,milan,2026-02-06T15:10:20.306771
ChIJEQYYiZ3GhkcRwolK0joGKUA,Kinesis Srl,gym,45.4563503,9.2125363,4.9,25.0,,"Via Simone D'Orsenigo, 1, Milano","gym,health,point_of_interest,establishment",OPERATIONAL,milan,2026-02-06T15:10:20.957779
ChIJ00liX53GhkcRo00p1SjEnSg,AumShanti Academy Ayurveda Milano,gym,45.4559365,9.2150988,4.2,5.0,,"Via Privata Rezia, 1, Milano","gym,spa,health,point_of_interest,establishment",OPERATIONAL,milan,2026-02-06T15:10:20.957814
ChIJ075F5SfEhkcRi_B3MBNh294,Gyms Open Club Sas,gym,45.4553315,9.215043,4.5,98.0,,"Via Simone D'Orsenigo, 23, Milano","gym,health,point_of_interest,establishment",OPERATIONAL,milan,2026-02-06T15:10:20.957820
ChIJk9IxyCbEhkcRxOBuO1iSCaw,Real PILATES Milano,gym,45.4547229,9.2139043,5.0,21.0,,"Via Friuli, 50, Milano","gym,spa,health,point_of_interest,establishment",OPERATIONAL,milan,2026-02-06T15:10:20.957829
ChIJVZyLuCXEhkcR8pOSPE2V6hw,Officina 27 Pilates,gym,45.4561892,9.215119099999999,5.0,62.0,,"Via Friuli, 64, Milano","gym,health,point_of_interest,establishment",OPERATIONAL,milan,2026-02-06T15:10:20.957835
ChIJq6r6vifEhkcRErx-oAWfFpQ,PUGILISTICA FIGHT CLUB,gym,45.4547266,9.213894999999999,,,,"Via Friuli, 50, Milano","gym,health,point_of_interest,establishment",OPERATIONAL,milan,2026-02-06T15:10:20.957841
ChIJhY1UvifEhkcRanxqwZdU2Nc,ASD Temenos Gym & Wellness,gym,45.4547229,9.2139043,4.7,26.0,,"Via Friuli, 50, Milano","gym,health,point_of_interest,establishment",OPERATIONAL,milan,2026-02-06T15:10:20.957847
ChIJQV7Ew2kCryQRZ6t_UBDiagc,Valeria Longo - Osteopata,gym,45.455452,9.2147398,,,,"Via Simone D'Orsenigo, 21, Milano","gym,health,point_of_interest,establishment",OPERATIONAL,milan,2026-02-06T15:10:20.957852
ChIJ-fkUBIrHhkcR5caJ19PhUlI,Mova Studio Milano,gym,45.4563256,9.212728000000002,5.0,5.0,,"Via Simone D'Orsenigo, 3, Milano","gym,health,point_of_interest,establishment",OPERATIONAL,milan,2026-02-06T15:10:20.957860
ChIJyyHAVZ3GhkcRcVCvXf9ckjk,Piscina,gym,45.4560891,9.2157272,3.5,2.0,,"Via Maestri Campionesi, 28, Milano","gym,health,point_of_interest,establishment",OPERATIONAL,milan,2026-02-06T15:10:20.957865
ChIJs513CfHFhkcRDZcBXxV-xwY,EmozionHub,gym,45.45471999999999,9.2202213,5.0,7.0,,"Via Laura Ciceri Visconti, 8, Milano","gym,health,point_of_interest,establishment",CLOSED_TEMPORARILY,milan,2026-02-06T15:10:21.079261
ChIJ5YjFYGbHhkcRhOuiaU40N5M,"inForMamme - Ostetrica Personal Trainer - Yoga gravidanza, Ginnastica postparto, Benessere donne",gym,45.4563443,9.2153779,4.9,18.0,,"c/o Zoe Olistic Studio, Via Maestri Campionesi, 26, Milano","gym,health,point_of_interest,establishment",OPERATIONAL,milan,2026-02-06T15:10:21.079324
ChIJ64tYKnfFhkcRUvZseLJpU28,THE CROSS MILANO,gym,45.4546064,9.226429,4.9,8.0,,"Via Abetone, 18, Milano","gym,health,point_of_interest,establishment",OPERATIONAL,milan,2026-02-06T15:10:21.194142
ChIJ47xrmtjHhkcRekFBEM1M8YI,Fitart studio,gym,45.4548684,9.244325200000002,5.0,136.0,,"Via Mecenate, 32, Milano","gym,health,point_of_interest,establishment",OPERATIONAL,milan,2026-02-06T15:10:21.429424
ChIJef_50qXHhkcRfI5zHKPXIYY,Heron Fitness Club,gym,45.4547853,9.2484312,4.7,157.0,,"Via Zante 14 zona, Via Mecenate, Milano","gym,health,point_of_interest,establishment",OPERATIONAL,milan,2026-02-06T15:10:21.555256
ChIJ96IbOQrHhkcR9gqljGnU-zI,ASD ANSHIN KAI 3 - Karate e Krav Maga,gym,45.4576623,9.243476099999997,4.9,18.0,,"Via Dalmazia, 4, Milano","gym,health,point_of_interest,establishment",OPERATIONAL,milan,2026-02-06T15:10:21.555303
ChIJPWsSTSDphkcReOvH8lau0Ho,Balla&Snella Baggio,gym,45.46046740000001,9.087318900000001,,,,"Via Val d'Intelvi, 11, Milano","gym,point_of_interest,health,establishment",OPERATIONAL,milan,2026-02-06T15:10:22.554644
ChIJqXCVzFjDhkcRdNCmwpBC8P0,Pilates Baggio,gym,45.4600122,9.094835,,,,"Piazza Sant' Apollinare, Milano","gym,health,point_of_interest,establishment",OPERATIONAL,milan,2026-02-06T15:10:22.645342
ChIJOZ_IiwPChkcRtfTD6OWDc4U,Scuola di danza Milano Il Borgo,gym,45.4611166,9.0974884,4.6,54.0,,"Via Fratelli di Dio, 6, Milano","gym,point_of_interest,health,establishment",OPERATIONAL,milan,2026-02-06T15:10:22.758324
ChIJCTmLQGPDhkcRY55tlm1ob20,Salle de sport,gym,45.46106129999999,9.097579999999999,,,,"Via Fratelli di Dio, 6, Milano","gym,point_of_interest,health,establishment",OPERATIONAL,milan,2026-02-06T15:10:22.758354
ChIJI54Zp_nDhkcRm9w9jVGrsSs,Galatea a.s.d. e culturale,gym,45.45873989999999,9.1106955,5.0,1.0,,"Via Val Devero, 29, Milano","gym,health,point_of_interest,establishment",OPERATIONAL,milan,2026-02-06T15:10:22.927548
ChIJP-LDuSvChkcRxPVXNCY5Ixk,Fisic Milan Club,gym,45.459661,9.131552200000003,4.7,46.0,,"Via Pantigliate, 4, Milano","gym,health,point_of_interest,establishment",OPERATIONAL,milan,2026-02-06T15:10:23.338763
ChIJtzlur9HAhkcR3E_Gj8dPg00,Ayurveda Milano - Ayurvedic Doa Scuola massaggio ayurvedico,gym,45.4581915,9.134370599999999,5.0,2.0,,"Via delle Tuberose, 14, Milano","gym,health,spa,point_of_interest,establishment",OPERATIONAL,milan,2026-02-06T15:10:23.338782
ChIJPzS3uSvChkcRVeGLQ2aa9VU,MICLUB a.s.d. - Gym Fitness & Sports,gym,45.45943339999999,9.131611399999999,5.0,16.0,,"Via Pantigliate, 6, Milano","gym,health,point_of_interest,establishment",OPERATIONAL,milan,2026-02-06T15:10:23.338787
ChIJIRl7UivChkcRwsoDYP3G9Mo,Zagharid,gym,45.4581915,9.134370599999999,4.8,8.0,,"Via delle Tuberose, 14, Milano","gym,health,point_of_interest,establishment",OPERATIONAL,milan,2026-02-06T15:10:23.338791
ChIJWTi5JCvChkcRnAS8lEDojTI,Judo Club Dojo Jigoro Kano,gym,45.4598808,9.134448,4.8,35.0,,"Via Privata Raimondo Montecuccoli, 33, Milano","gym,health,point_of_interest,establishment",OPERATIONAL,milan,2026-02-06T15:10:23.338795
ChIJQX5WQ9vDhkcRa3unZKkegC0,Fusco Fitness Milano D'Alviano - Personal Trainer,gym,45.4586656,9.1381667,4.9,72.0,,"Via Bartolomeo D'Alviano, 55, Milano","gym,health,point_of_interest,establishment",OPERATIONAL,milan,2026-02-06T15:10:23.965151
ChIJiV9MExXDhkcRqiHwc8pO-FA,studio di yoga,gym,45.4615144,9.135733900000002,,,,"Piazzale Giovanni delle Bande Nere, 9, Milano","gym,health,point_of_interest,establishment",OPERATIONAL,milan,2026-02-06T15:10:23.965181
ChIJvRW5U7vDhkcRGvEVeqaShak,Anytime Fitness Milano Fezzan,gym,45.4588648,9.146262000000002,4.6,89.0,,"Via Fezzan, 9, Milano","gym,health,point_of_interest,establishment",OPERATIONAL,milan,2026-02-06T15:10:24.099763
ChIJkd2hWyvChkcRLCHOSajEsIA,KMG Milano - krav maga,gym,45.458413,9.152947700000002,5.0,9.0,,"Via Romolo Gessi, 16, Milano","gym,point_of_interest,health,establishment",OPERATIONAL,milan,2026-02-06T15:10:24.228777
ChIJ96zAGNnDhkcRTjp_6rXJdgs,Martial arts and MMA Dojo Yoseikan Milan,gym,45.458536,9.151001599999999,4.6,26.0,,"Via Garian, 64, Milano","gym,point_of_interest,health,establishment",OPERATIONAL,milan,2026-02-06T15:10:24.228818
ChIJv5sZgfLBhkcR1EAT6tLQ2pE,Casa Maga,gym,45.4609374,9.149793899999997,5.0,1.0,,"Via Sardegna, 48, Milano","gym,point_of_interest,health,establishment",OPERATIONAL,milan,2026-02-06T15:10:24.228842
ChIJEZJZTx_DhkcRNxSxbyy-Pto,Garian Studio Milano,gym,45.45846909999999,9.15378,,,,"Via Garian, 20, Milano","gym,point_of_interest,health,establishment",OPERATIONAL,milan,2026-02-06T15:10:24.228852
ChIJF5TpmpzBhkcRt3dqrnJEG_k,Fitness Lab Milano SSD,gym,45.4617687,9.1516517,4.7,35.0,,"Via Pietro Cavalcabò, 3, Milano","gym,point_of_interest,health,establishment",OPERATIONAL,milan,2026-02-06T15:10:24.228862
ChIJy-trWI3BhkcREcfDVYrfX9Y,Fintess Italia CV3,gym,45.4618136,9.151637499999998,,,,"Via Pietro Cavalcabò, 3, Milano","gym,point_of_interest,health,establishment",OPERATIONAL,milan,2026-02-06T15:10:24.228870
ChIJt2302KP7Yw8RMSy2v5qzOck,Dott. Fabrizio Cozzolino - Osteopata Milano,gym,45.4587961,9.155381499999999,5.0,231.0,,"Via Salvio Giuliano, 5/3, Milano","hospital,spa,gym,health,point_of_interest,establishment",OPERATIONAL,milan,2026-02-06T15:10:24.375551
ChIJCyY4xXzDhkcRAEomXAqwU-s,Pilates Alchemy,gym,45.4589255,9.156204500000001,5.0,6.0,,"Via Giacomo Boni, 28, Milano","gym,health,point_of_interest,establishment",OPERATIONAL,milan,2026-02-06T15:10:24.375580
ChIJcWFOKgDDhkcR38ld76bC2eo,Bulb Functional - Washington,gym,45.4589742,9.156814899999999,5.0,5.0,,"Via Giacomo Boni, 45, Milano","gym,health,point_of_interest,establishment",OPERATIONAL,milan,2026-02-06T15:10:24.375587
ChIJd2LUBxLDhkcRlu2zpxuGQgE,Abe Gym - Centro Fitness,gym,45.4589742,9.156814899999999,5.0,41.0,,"Via Giacomo Boni, 45, Milano","gym,health,point_of_interest,establishment",OPERATIONAL,milan,2026-02-06T15:10:24.375593
ChIJRSWxReDDhkcR3POJCpbLzj4,CSB Fight CrossFit,gym,45.45866619999999,9.1608688,4.9,75.0,,"Via California, 7, Milano","gym,health,point_of_interest,establishment",OPERATIONAL,milan,2026-02-06T15:10:24.375600
ChIJy1qagzrBhkcR2bx4BgiInkw,Lux Pilates Studio,gym,45.4617576,9.1544309,4.7,7.0,,"Via Organdino, 2, Milano","gym,health,point_of_interest,establishment",OPERATIONAL,milan,2026-02-06T15:10:24.375607
ChIJjxsNGYvDhkcROkuMJYb_U70,ФОП Онишко Михайло Іванович,gym,45.4599585,9.160151399999998,,,,"Piazza Vesuvio, Milano","gym,health,point_of_interest,establishment",OPERATIONAL,milan,2026-02-06T15:10:24.375613
ChIJFeMWc1_BhkcRl8g-LY26oq8,Studio Beyespilates,gym,45.4612945,9.162700899999999,5.0,3.0,,"Piazzale Aquileia, 8, Milano","gym,health,point_of_interest,establishment",OPERATIONAL,milan,2026-02-06T15:10:24.537488
ChIJF59GeRfDhkcRupPbeP-sfSE,Personal Trainer Milano - REVERBIA Studio Solari,gym,45.45773159999999,9.1646839,5.0,142.0,,"Via Valparaiso, 2, Milano","gym,health,point_of_interest,establishment",OPERATIONAL,milan,2026-02-06T15:10:24.537515
ChIJUYk87T_BhkcROwnyTBFjtXI,Kairos Salute,gym,45.4609809,9.160991,5.0,16.0,,"Via Lipari, 8, Milano","gym,health,point_of_interest,establishment",OPERATIONAL,milan,2026-02-06T15:10:24.537522
ChIJqYuEzQbDhkcRPeNePT1H_YA,MammaFit - Parco Solari,gym,45.4576875,9.1659375,1.0,1.0,,"F558+39F, Milan","gym,health,point_of_interest,establishment",OPERATIONAL,milan,2026-02-06T15:10:24.537529
ChIJ__1kHoXDhkcR--v0Tv8aYlo,Parco Calisthenics Solari,gym,45.4580663,9.166921700000001,4.3,9.0,,"Via Marco Antonio Bragadino, 34, Milano","gym,health,point_of_interest,establishment",OPERATIONAL,milan,2026-02-06T15:10:24.537536
ChIJN-TKpeLDhkcRLtmGN-0ag4Y,Iyengar Yoga Institute Milan,gym,45.4592568,9.1693421,4.9,52.0,,"Via Numa Pompilio, 3, Milano","gym,health,point_of_interest,establishment",OPERATIONAL,milan,2026-02-06T15:10:24.680908
ChIJsU3t2VfBhkcRF-UGTm4xFf0,Bujinkan Zenshin Dojo,gym,45.4596279,9.1726479,5.0,12.0,,"Via Carroccio, 13, Milano","gym,health,point_of_interest,establishment",OPERATIONAL,milan,2026-02-06T15:10:24.680940
ChIJsU3t2VfBhkcRyUiT8JN8ZFA,Elite Training Center,gym,45.4596279,9.1726479,5.0,2.0,,"Via Carroccio, 13, Milano","gym,health,point_of_interest,establishment",OPERATIONAL,milan,2026-02-06T15:10:24.680950
ChIJUZY5Ev3DhkcRGPkct7CdjfA,Pilates Cesare da Sesto 24,gym,45.4588506,9.171415099999999,4.8,17.0,,"Via Cesare da Sesto, 24, Milano","gym,health,point_of_interest,establishment",OPERATIONAL,milan,2026-02-06T15:10:24.680959
ChIJ-wRMq1nBhkcRW-JWxm8FflA,Kriya Yoga Ashram Milan,gym,45.4620972,9.168510699999997,5.0,25.0,,"Via degli Olivetani, 12, Milano","gym,health,point_of_interest,establishment",OPERATIONAL,milan,2026-02-06T15:10:24.680967
ChIJJz5OseLDhkcRvmXNXESPZtA,Project Pilates Di Alessandro Dall'Acqua,gym,45.4588966,9.169875099999999,4.4,5.0,,"Piazza Sant'Agostino, 22, Milano","gym,health,point_of_interest,establishment",OPERATIONAL,milan,2026-02-06T15:10:24.680975
ChIJueq19uLDhkcRZrwrnalf1KA,Samyavastha Yoga,gym,45.4582299,9.167540599999999,5.0,28.0,,"Viale Coni Zugna, 36, Milano","gym,health,point_of_interest,establishment",OPERATIONAL,milan,2026-02-06T15:10:24.680983
ChIJrdR4s1fBhkcRuMALG05HSyk,The Art of Pilates,gym,45.4607964,9.1736685,5.0,5.0,,"Via Carroccio, 4, Milano","gym,health,point_of_interest,establishment",OPERATIONAL,milan,2026-02-06T15:10:24.810262
ChIJqZg5f-DDhkcRE5KNmYB3NSY,Yoga And Beauty Space IT10,gym,45.4575544,9.1744301,,,,"Via Daniele Crespi, 4, Milano","gym,health,point_of_interest,establishment",OPERATIONAL,milan,2026-02-06T15:10:24.810273
ChIJS6A6ckXDhkcREve3xzVq1FM,Beyond Studio - Yoga & More,gym,45.4575544,9.1744301,5.0,32.0,,"Via Daniele Crespi, 4, Milano","gym,health,point_of_interest,establishment",OPERATIONAL,milan,2026-02-06T15:10:24.810275
ChIJVVUBGv3DhkcRE9mFBYz2198,Balavidya,gym,45.4576443,9.1717562,,,,"Via San Calocero, 31, Milano","gym,health,point_of_interest,establishment",OPERATIONAL,milan,2026-02-06T15:10:24.810277
ChIJ8_NQKcDBhkcRH678MBuEb9k,Ambrosiana Boxing Academy,gym,45.4598155,9.173718400000002,5.0,36.0,,"Via Lesmi, 8A, Milano","gym,health,point_of_interest,establishment",OPERATIONAL,milan,2026-02-06T15:10:24.810279
ChIJO6cHiwHDhkcRyqehU6Qh7wg,Brooklyn Fitboxing Papiniano,gym,45.45783609999999,9.1714914,4.9,57.0,,"Via Ausonio, 26, Milano","gym,health,point_of_interest,establishment",OPERATIONAL,milan,2026-02-06T15:10:24.810280
ChIJPT-9Lc_DhkcRCJH3xyIHiwc,Kalila Community,gym,45.4589094,9.176757499999999,5.0,24.0,,"Via San Vincenzo, 8, Milano","gym,health,point_of_interest,establishment",OPERATIONAL,milan,2026-02-06T15:10:24.810282
ChIJPXl2rkfBhkcRB4k8ey23PkQ,Glampilates,gym,45.4598913,9.1757048,5.0,19.0,,"Via Edmondo de Amicis, 43, Milano","gym,health,point_of_interest,establishment",OPERATIONAL,milan,2026-02-06T15:10:24.810283
ChIJD1SjyKrGhkcRbZnZhpFDDow,Pilates Milano - Benessere in Movimento,gym,45.4599434,9.1829293,4.5,13.0,,"Via Stampa, 8, Milano","gym,health,point_of_interest,establishment",OPERATIONAL,milan,2026-02-06T15:10:24.938403
ChIJk0n95lTBhkcROUqcrxtKkPk,Urban Fitness Milano Massaia,gym,45.4615228,9.1811981,4.9,17.0,,"Piazza Guglielmo Massaia, 3, Milano","gym,health,point_of_interest,establishment",OPERATIONAL,milan,2026-02-06T15:10:24.938431
ChIJfbhzqVXBhkcR0gZV2i0yoWc,Centro Yoga Mandir Milano,gym,45.4609333,9.1794808,4.9,14.0,,"Via Circo, 18, Milano","gym,health,point_of_interest,establishment",OPERATIONAL,milan,2026-02-06T15:10:24.938440
ChIJywSOnPnHhkcRu0VgjbZrm7o,Boxe Milano - Fight Club Fragomeni,gym,45.4590904,9.184110600000002,4.8,61.0,,"Via San Vito, 10, Milano","gym,health,point_of_interest,establishment",OPERATIONAL,milan,2026-02-06T15:10:24.938451
ChIJ3cr5lkHHhkcRS2_8EmNdl94,Hey Pilates,gym,45.4596188,9.184216800000002,4.5,8.0,,"Via Santa Maria Valle, 7, Milano","gym,health,point_of_interest,establishment",OPERATIONAL,milan,2026-02-06T15:10:24.938460
ChIJL5lCExrBhkcRixOn4Xjay_w,Milan Pilates Reformer in English,gym,45.461422,9.1809552,5.0,8.0,,"Via Circo, 1, Milano","gym,health,point_of_interest,establishment",OPERATIONAL,milan,2026-02-06T15:10:24.938468
ChIJzRgyLmvBhkcRcGXZKy8EF2Q,YouPilates,gym,45.4614835,9.180824499999998,4.9,54.0,,"Via Circo, 1, Milano","gym,health,point_of_interest,establishment",OPERATIONAL,milan,2026-02-06T15:10:24.938476
ChIJ53ig51TBhkcROuLPlQkZ588,La Palestra Del Futuro,gym,45.4614772,9.1812158,,,,Italy,"gym,health,point_of_interest,establishment",OPERATIONAL,milan,2026-02-06T15:10:24.938484
ChIJt6aMlg3HhkcRlWbToIe6eYg,Studio San Giorgio - Personal Training e Pilates,gym,45.46120810000001,9.184204600000001,5.0,10.0,,"Piazza San Giorgio, 2, Milano","gym,health,point_of_interest,establishment",OPERATIONAL,milan,2026-02-06T15:10:24.938492
ChIJfQz986vGhkcRX5W-c1gXmuc,7 City Club,gym,45.46248070000001,9.187817099999998,4.2,165.0,,"Via Falcone, 5, Milano","gym,health,spa,point_of_interest,establishment",OPERATIONAL,milan,2026-02-06T15:10:25.076639
ChIJF2zxuq_GhkcRwFsFBAtZR2g,Personal Trainer Milano - REVERBIA Studio Missori,gym,45.4594119,9.1868114,5.0,139.0,,"Via Amedei, 6, Milano","gym,health,point_of_interest,establishment",OPERATIONAL,milan,2026-02-06T15:10:25.076669
ChIJG1EQjKnGhkcRiuClwP0RWfI,ALĀIA Private Training Studio,gym,45.45953650000001,9.188407999999999,4.8,31.0,,"Via Maddalena, 3/5, Milano","gym,health,point_of_interest,establishment",OPERATIONAL,milan,2026-02-06T15:10:25.076679
ChIJ0cQAUanGhkcRyGTCD_-yRiI,Virgin Active Milano Diaz,gym,45.46208829999999,9.1895601,3.8,544.0,,"Piazza Armando Diaz, 6, Milano","gym,health,point_of_interest,establishment",OPERATIONAL,milan,2026-02-06T15:10:25.076689
ChIJiehQjqnGhkcROPSGd3OsmKU,Benefit Studio Pilates Milano,gym,45.4594384,9.188416,4.9,12.0,,"Via Maddalena, 3/5, Milano","gym,health,point_of_interest,establishment",OPERATIONAL,milan,2026-02-06T15:10:25.076698
ChIJhZEclcfHhkcROLBaHa4omtY,24Fit Group srl,gym,45.45980400000001,9.187029500000001,,,,"Via Fieno, 3, Milano","gym,health,point_of_interest,establishment",OPERATIONAL,milan,2026-02-06T15:10:25.076709
ChIJpa4h4fjHhkcRUhisFhsDSXk,COREWORK reformer pilates - Milano (Missori),gym,45.4600532,9.187313300000001,4.7,9.0,,"Via Fieno, 1, Milano","gym,health,point_of_interest,establishment",OPERATIONAL,milan,2026-02-06T15:10:25.076717
ChIJf8g7CqvGhkcR8R33GwRWJr4,Corso Preparto Milano - Mammole,gym,45.4614555,9.1856311,,,,"Via della Palla, 2, Milano","gym,health,point_of_interest,establishment",CLOSED_TEMPORARILY,milan,2026-02-06T15:10:25.076728
ChIJHS0wJ1_HhkcRNl_QEl3xS00,dott. Stefano Senna - Osteopata e Massoterapista,gym,45.46226650000001,9.186638000000004,,,,"Presso I-Medica, Via Torino, 23, Milano","gym,health,point_of_interest,establishment",OPERATIONAL,milan,2026-02-06T15:10:25.076737
ChIJCS8FbHzHhkcRNB_Bqk5o72E,Aurea Forma Pilates - Duomo Milano,gym,45.4622925,9.187675400000002,5.0,34.0,,"Via Falcone, 7, Milano","gym,health,point_of_interest,establishment",OPERATIONAL,milan,2026-02-06T15:10:25.076745
ChIJXQ7986vGhkcRXSaJrg79MWc,Get Service Srl,gym,45.4623993,9.187960099999998,3.0,1.0,,"Via Giovanni Falcone, 5, Milano","gym,health,point_of_interest,establishment",OPERATIONAL,milan,2026-02-06T15:10:25.076753
ChIJz1HRJBrHhkcRSEZS0wBtxGc,MotionLab 97,gym,45.4605344,9.192682000000001,5.0,15.0,,"Via Chiaravalle, 14, Milano","gym,health,point_of_interest,establishment",OPERATIONAL,milan,2026-02-06T15:10:25.190736
ChIJByeFJ6fGhkcRUyZFzf10HPw,Accademia sport educazione,gym,45.4595784,9.1987917,,,,Italy,"gym,health,point_of_interest,establishment",OPERATIONAL,milan,2026-02-06T15:10:25.190764
ChIJL2MIvI_HhkcR0zlUBy-J9bY,Blu Studio Pilates,gym,45.46194029999999,9.193634500000002,5.0,9.0,,"Via Larga, 7, Milano","gym,health,point_of_interest,establishment",OPERATIONAL,milan,2026-02-06T15:10:25.190775
ChIJQ6Qy99bHhkcRy3iaVsesbm8,Ydun Milano Duomo,gym,45.46246499999999,9.1925968,4.9,18.0,,"Via Palazzo Reale, 5, Milano","gym,spa,health,point_of_interest,establishment",OPERATIONAL,milan,2026-02-06T15:10:25.190785
ChIJ4_hgl6bGhkcRhEwCdI-wDdY,Guastallapilates,gym,45.461451,9.19852,4.9,12.0,,"Via della Guastalla, 5, Milano","gym,health,point_of_interest,establishment",OPERATIONAL,milan,2026-02-06T15:10:25.856808
ChIJj8gMn7rHhkcRR5eGQ9widFo,HY Sweat Studio - Guastalla,gym,45.4608753,9.1989535,5.0,6.0,,"Via Sant'Antonio Maria Zaccaria, 2B, Milano","gym,health,point_of_interest,establishment",OPERATIONAL,milan,2026-02-06T15:10:25.856844
ChIJF6LCuqbGhkcR4bDmQWD2iSg,"Centro Yoga ""Il Laboratorio""",gym,45.46142320000001,9.198526499999998,,,,"Piazzetta Guastalla, 5, Milano","gym,health,point_of_interest,establishment",OPERATIONAL,milan,2026-02-06T15:10:25.856851
ChIJKbLMmZjGhkcR5-Je_oFgW-c,Urban Fitness Milano Cinque Giornate,gym,45.4615933,9.207080999999999,4.6,18.0,,"Piazza Cinque Giornate, 6, Milano","gym,health,point_of_interest,establishment",OPERATIONAL,milan,2026-02-06T15:10:25.989186
ChIJL7t2oZ7GhkcRfhq1UnPqbeo,Centro Integral Yoga Shanti,gym,45.4600732,9.210997899999999,4.8,40.0,,"Via Emilio Morosini, 16, Milano","gym,health,point_of_interest,establishment",OPERATIONAL,milan,2026-02-06T15:10:25.989209
ChIJN9isrMXHhkcRLmp3gmWKpQE,MUSE - Workness Milano,gym,45.4588118,9.2093644,,,,"Via Andrea Maffei, 1, Milano","gym,physiotherapist,health,point_of_interest,establishment",OPERATIONAL,milan,2026-02-06T15:10:25.989219
ChIJx7QTzCvHhkcRrShq0uh0t-o,tLab di Roberta Nogara,gym,45.4588845,9.209410900000002,5.0,2.0,,"Via Spartaco, 12, Milano","gym,health,point_of_interest,establishment",OPERATIONAL,milan,2026-02-06T15:10:25.989223
ChIJ0ftnTmjHhkcRoqvK9sAQuV0,Powerline - Personal Training & Fitness Studio,gym,45.4605037,9.2070235,5.0,65.0,,"Viale Regina Margherita, 28, Milano","gym,health,point_of_interest,establishment",OPERATIONAL,milan,2026-02-06T15:10:25.989228
ChIJi96m_nHHhkcRUqidjG0xAD0,Performante Fitness,gym,45.45772799999999,9.209922899999999,5.0,4.0,,"Via Emilio Morosini, 32, Milano","gym,health,point_of_interest,establishment",OPERATIONAL,milan,2026-02-06T15:10:25.989232
ChIJ59LMtNHHhkcRFqliLgImOZg,Studio Sciesa 15,gym,45.4602726,9.209435999999998,5.0,15.0,,"Via Amatore Sciesa, 15, Milano","gym,health,point_of_interest,establishment",OPERATIONAL,milan,2026-02-06T15:10:25.989236
ChIJb2kM2SPHhkcRIbyfyT0o4Sw,Fit And Go Milano 5 Giornate,gym,45.46151589999999,9.2058601,4.9,20.0,,"Via Fontana, 19, Milano","gym,health,point_of_interest,establishment",OPERATIONAL,milan,2026-02-06T15:10:25.989240
ChIJ2xAkM2THhkcRrG6jEoBaKtU,"EQB Milano • Correzione Posturale, Osteopatia, Pilates, Functional, Yoga, Massaggi",gym,45.46165119999999,9.2065092,5.0,65.0,,"Viale Regina Margherita, 43, Milano","spa,gym,health,point_of_interest,establishment",OPERATIONAL,milan,2026-02-06T15:10:25.989244
ChIJC_2lKjnHhkcRuGdyA-UQ9CI,Kinesiopilates di Cristiana Curioni,gym,45.46165119999999,9.2065092,,,,"Viale Regina Margherita, 43, Milano","gym,health,point_of_interest,establishment",OPERATIONAL,milan,2026-02-06T15:10:25.989248
ChIJ2XoBcqDHhkcRmBg48qA_6K4,"The Garden: centro di yoga, specializzato nei metodi GYROTONIC® e GYROKINESIS®.",gym,45.46148549999999,9.2080752,4.9,46.0,,"Viale Monte Nero, 80, Milano","spa,gym,beauty_salon,health,point_of_interest,establishment",OPERATIONAL,milan,2026-02-06T15:10:25.989252
ChIJF5Zjds7HhkcRXlygjRKNsVE,mondō yoga,gym,45.4599872,9.2107472,4.6,21.0,,"Via Augusto Anfossi, 14, Milano","gym,health,point_of_interest,establishment",OPERATIONAL,milan,2026-02-06T15:10:25.989256
ChIJveKCJ6vHhkcRULhslnBcGoc,KBF kettlebellflow - Palestra/Gym Milano,gym,45.46209699999999,9.206129399999998,4.8,25.0,,"Corso di Porta Vittoria, 56, Milano","gym,health,point_of_interest,establishment",OPERATIONAL,milan,2026-02-06T15:10:25.989260
ChIJ1T5jNk3HhkcRhGnWs3YPLX0,Pilates Milano - Benessere-in-Movimento,gym,45.4621485,9.206341199999999,3.8,4.0,,"Corso di Porta Vittoria, 58, Milano","gym,health,point_of_interest,establishment",OPERATIONAL,milan,2026-02-06T15:10:25.989266
ChIJeTykipvGhkcRNe-D5N4-1Lk,A.S.D. Judo Spartacus Milan,gym,45.46038120000001,9.2127843,5.0,48.0,,"Via Bezzecca, 18, Milano","gym,health,point_of_interest,establishment",OPERATIONAL,milan,2026-02-06T15:10:26.125898
ChIJAayoaZ3GhkcRBPuQ8G40Xo8,Palestra Pilates Estetica Parruchiere,gym,45.4567551,9.214588599999999,3.0,1.0,,"Via Maestri Campionesi, 20, Milano","gym,health,point_of_interest,establishment",CLOSED_TEMPORARILY,milan,2026-02-06T15:10:26.125930
ChIJbTCQnlPHhkcRMpeRffGL_lI,Piazza della Repubblica,gym,45.4609265,9.2119998,5.0,1.0,,"Via Bezzecca, Milano","gym,health,point_of_interest,establishment",OPERATIONAL,milan,2026-02-06T15:10:26.125942
ChIJg11DSiPHhkcRMqisXHC6EyI,Virgin Active Milano Porta Vittoria,gym,45.46013370000001,9.217939800000002,4.6,12.0,,"Viale Umbria, 116, Milano","gym,health,point_of_interest,establishment",OPERATIONAL,milan,2026-02-06T15:10:26.208689
ChIJa9gByyfHhkcRueGulrvD0_s,Street Workout,gym,45.460914,9.216400100000001,5.0,4.0,,"Unnamed Road, 20135, 20135","gym,health,point_of_interest,establishment",OPERATIONAL,milan,2026-02-06T15:10:26.208721
ChIJc82HKe3HhkcRrCPGeEYMy-I,Area Calisthenics Parco Vittorio Formentano,gym,45.4608747,9.216235,4.7,3.0,,"F668+8F, Viale Umbria, 118, Milano","gym,health,point_of_interest,establishment",OPERATIONAL,milan,2026-02-06T15:10:26.208732
ChIJJRY33IbGhkcRinQ_XBiqtNQ,GetFIT - Via Piranesi,gym,45.4608227,9.225657700000001,4.0,553.0,,"Via Giovanni Battista Piranesi, 9, Milano","gym,health,point_of_interest,establishment",OPERATIONAL,milan,2026-02-06T15:10:26.333158
ChIJbxq16n3GhkcRqwh_GNcrtTM,Urban Fitness Milano Piranesi (Porta Vittoria),gym,45.4606182,9.230474999999998,4.6,23.0,,"Via Giovanni Battista Piranesi, 34, Milano","gym,health,point_of_interest,establishment",OPERATIONAL,milan,2026-02-06T15:10:26.333184
ChIJiVH7MwjHhkcRsNaWKQgd__M,Il Drago che Nuota (c/o Ottava Nota),gym,45.4587357,9.2397683,,,,"Via Marco Bruto, 24, Milano","gym,health,point_of_interest,establishment",OPERATIONAL,milan,2026-02-06T15:10:26.497237
ChIJxQFTWOPHhkcREWsPvwCmvCs,Forlanini Yoga Project A.S.D.,gym,45.46123609999999,9.2442995,5.0,4.0,,"Viale Enrico Forlanini, 50/9, Milano","gym,health,point_of_interest,establishment",OPERATIONAL,milan,2026-02-06T15:10:26.606695
ChIJMRVZyNA2ekcRN_dWj5Bm6-A,Be Elite Fitness & Sport Performance,gym,45.46281759999999,9.064411699999999,5.0,27.0,,"Myland Padel & Gym, Via Riccardo Lombardi, 19/12, Milano","gym,health,point_of_interest,establishment",OPERATIONAL,milan,2026-02-06T15:10:27.470842
ChIJ7ZLFmIzphkcRAllMQMHmwqQ,Myland Padel & Gym,gym,45.4628512,9.064573,4.3,130.0,,"Via Riccardo Lombardi, 19/12, Milano","gym,health,point_of_interest,establishment",OPERATIONAL,milan,2026-02-06T15:10:27.470873
ChIJ71VHnPjphkcRZqMFRQUfoXs,Total Perfect Body,gym,45.4663239,9.083565,4.8,20.0,,"Via Ugo Frigerio, 43, Milano","gym,health,point_of_interest,establishment",OPERATIONAL,milan,2026-02-06T15:10:27.702906
ChIJIfnh7ajphkcRNpyM_C6IhTM,Corsi di Difesa Personale MGA e Boxe Defence,gym,45.4662141,9.083303100000002,4.9,10.0,,"Via Ugo Frigerio, 43, Milano","gym,health,point_of_interest,establishment",OPERATIONAL,milan,2026-02-06T15:10:27.702999
ChIJg0JxdADDhkcR71B2FJ3jPR8,V Pilates Studio,gym,45.46224569999999,9.133187999999997,5.0,14.0,,"Via Privata Ludovico Cavaleri, 8, Milano","gym,health,point_of_interest,establishment",OPERATIONAL,milan,2026-02-06T15:10:28.795061
ChIJKfaRXoDBhkcRRys8S5khrpw,Sangha Yoga Center Milan,gym,45.4638402,9.134434500000001,4.9,24.0,,"Via Privata Nicolò Alunno, 10, Milano","gym,health,point_of_interest,establishment",OPERATIONAL,milan,2026-02-06T15:10:28.795077
ChIJY6mVJIDBhkcRKUtFoRGNhLw,Uboxe,gym,45.4639626,9.1364458,1.0,1.0,,"Via dei Malatesta, 2, Milano","gym,health,point_of_interest,establishment",OPERATIONAL,milan,2026-02-06T15:10:28.945261
ChIJ7Qm-8uzBhkcR-Je6uVuNOu4,Massoterapia - Personal Trainer - Chinesiologo - Posturologo,gym,45.46287050000001,9.1395758,4.9,64.0,,"Via Sofonisba Anguissola, 21, Milano","gym,health,spa,point_of_interest,establishment",OPERATIONAL,milan,2026-02-06T15:10:28.945280
ChIJ___PMgXEhkcRaXGpkMJ0ri0,Kamala Yoga Studio A.S.D.,gym,45.465586,9.1390261,,,,"Via Giovanni Battista Moroni, 29, Milano","gym,health,point_of_interest,establishment",OPERATIONAL,milan,2026-02-06T15:10:28.945284
ChIJQ65--wnBhkcRj6Vlry3-dX4,Aretusa Training Milano,gym,45.4664659,9.136561099999998,,,,"Viale Aretusa, 30, Milano","gym,health,point_of_interest,establishment",OPERATIONAL,milan,2026-02-06T15:10:28.945288
ChIJe2gWs7fBhkcR69Fj9lbbwmQ,Pilatesterapia di Ester da Pos,gym,45.46646500000001,9.134009800000001,5.0,25.0,,"Via Privata Piero Martinetti, 12, Milano","physiotherapist,gym,health,point_of_interest,establishment",OPERATIONAL,milan,2026-02-06T15:10:28.945292
ChIJJylyeIHBhkcRdDOLvxnfbvY,Palestra Agonistic Club,gym,45.4668035,9.1338723,4.3,70.0,,"Via Privata Piero Martinetti, 14, Milano","gym,health,point_of_interest,establishment",OPERATIONAL,milan,2026-02-06T15:10:28.945296
ChIJFetrgqnBhkcR66tK0nxSlok,Studio Danza Cubanstyle a.s.d.,gym,45.4647396,9.141022,5.0,8.0,,"Via Jacopo Palma, 5, Milano","gym,health,point_of_interest,establishment",OPERATIONAL,milan,2026-02-06T15:10:28.945301
ChIJTwadVSrChkcR5kYuOp9rdjU,The Municipality Association,gym,45.46569059999999,9.1440248,4.6,23.0,,"Via Antonio Tolomeo Trivulzio, 22, Milano","gym,health,point_of_interest,establishment",OPERATIONAL,milan,2026-02-06T15:10:29.074994
ChIJA1X_KiPBhkcRbtim58YMk1A,AV Pilates Studio Milano,gym,45.4645179,9.143008899999998,5.0,10.0,,"Via Pasquale Fornari, 4, Milano","gym,health,point_of_interest,establishment",OPERATIONAL,milan,2026-02-06T15:10:29.075026
ChIJC-6AIWXBhkcRKLbS0rJRFvQ,Bali Yoga,gym,45.4660148,9.1521835,4.9,80.0,,"Via Marghera, 43, Milano","gym,health,point_of_interest,establishment",OPERATIONAL,milan,2026-02-06T15:10:29.218489
ChIJt7Pw5mLBhkcRkb62nkMQ9UU,Upwell,gym,45.4631205,9.150145000000002,,,,"Via Marchesi de Taddei, 3, Milano","gym,health,point_of_interest,establishment",OPERATIONAL,milan,2026-02-06T15:10:29.218515
ChIJrZh5rGTBhkcRL2KPr0eYIsQ,Pole Dance Therapy,gym,45.4661036,9.149427299999997,,,,"Piazza de Angeli Ernesto, Milano","gym,health,point_of_interest,establishment",OPERATIONAL,milan,2026-02-06T15:10:29.218534
ChIJ9_C39jnBhkcR3gapmm9IMnQ,Newmomstribu,gym,45.46619029999999,9.1497607,5.0,9.0,,"Via Privata delle Stelline, Milano","gym,health,point_of_interest,establishment",OPERATIONAL,milan,2026-02-06T15:10:29.218546
ChIJH2PH2TzBhkcR5S4jbRt09cc,Personal Trainer & Pilates Milano - Natural20,gym,45.4661018,9.150569599999999,5.0,56.0,,"Piazza de Angeli Ernesto, 1, Milano","gym,health,point_of_interest,establishment",OPERATIONAL,milan,2026-02-06T15:10:29.218551
ChIJkV4B-5_BhkcRXzy1GhsD5Ug,BASILE TRAINING STUDIO,gym,45.4625739,9.1545477,4.8,16.0,,"Via Giorgio Washington, 52, Milano","gym,health,point_of_interest,establishment",OPERATIONAL,milan,2026-02-06T15:10:29.218557
