place_id,name,type,lat,lng,rating,user_ratings_total,price_level,vicinity,types,business_status,city,collected_at
ChIJz96HZbDEhkcRoQzO5TrJm1U,Old Wild West,restaurant,45.3923834,9.176157399999997,3.9,2334.0,2.0,"Via Eugenio Curiel, 25, Rozzano","restaurant,point_of_interest,food,establishment",OPERATIONAL,milan,2026-02-06T15:11:36.031279
ChIJP6Aon7DEhkcR135VPWJZ7vI,Ristorante Giovanni Rana Fiordaliso,restaurant,45.3923772,9.1762884,3.7,315.0,2.0,"Via Eugenio Curiel, 25, Rozzano","restaurant,point_of_interest,food,establishment",OPERATIONAL,milan,2026-02-06T15:11:36.031325
ChIJTzku1aTEhkcRWRpQFU8H4ww,Alba Chiara,restaurant,45.3952924,9.1727933,3.3,12.0,,"Via Eugenio Curiel, Milano","restaurant,point_of_interest,food,establishment",OPERATIONAL,milan,2026-02-06T15:11:36.031335
ChIJXyeB1NbFhkcReU62_aFW0cs,Pizzeria Ti Amo,restaurant,45.39407130000001,9.1713371,4.4,74.0,,"Via Lambro, 24, Rozzano","meal_takeaway,meal_delivery,restaurant,point_of_interest,food,establishment",OPERATIONAL,milan,2026-02-06T15:11:36.031344
ChIJZ5ApV5jFhkcRpEsUJ5hpA6c,Hamerica's Fiordaliso,restaurant,45.3927497,9.175128899999999,4.0,75.0,2.0,"Via Eugenio Curiel, 25 C, Rozzano","restaurant,point_of_interest,food,establishment",OPERATIONAL,milan,2026-02-06T15:11:36.031355
ChIJGaE4cbrEhkcRjQTc3dEIGKU,Sushi Daily,restaurant,45.3930166,9.176204100000001,4.9,272.0,2.0,"Fiordaliso - Iper la Grande I 25, Via Eugenio Curiel, Rozzano","meal_takeaway,restaurant,point_of_interest,food,establishment",OPERATIONAL,milan,2026-02-06T15:11:36.031364
ChIJf7wlDKXEhkcR5KnIzIB9Abk,Il Nuovo Mago,restaurant,45.3945239,9.170532,4.1,301.0,1.0,"Via Europa, 63, Rozzano","restaurant,point_of_interest,food,establishment",OPERATIONAL,milan,2026-02-06T15:11:36.031372
ChIJK-U624bFhkcRV0dK-oEHbpM,Almaki Fiordaliso,restaurant,45.3924558,9.1756776,3.8,38.0,,"Via Eugenio Curiel, 25, Rozzano","restaurant,point_of_interest,food,establishment",OPERATIONAL,milan,2026-02-06T15:11:36.031380
ChIJ8VA58KrFhkcRsnv1QezvYpw,KFC ROZZANO,restaurant,45.3924558,9.1756776,3.2,212.0,1.0,"Via Eugenio Curiel, 25, Rozzano","restaurant,meal_takeaway,point_of_interest,food,establishment",OPERATIONAL,milan,2026-02-06T15:11:36.031389
ChIJcwpqhrDEhkcRcUTsaXqi714,Barangolo,restaurant,45.3922439,9.1746733,3.2,101.0,,"Centro Commerciale Fiordaliso, Via Eugenio Curiel, 25, Rozzano","bar,restaurant,point_of_interest,food,establishment",OPERATIONAL,milan,2026-02-06T15:11:36.031398
ChIJzwQ_kHbFhkcRFbwPC3c5KQY,La Piadineria,restaurant,45.3924957,9.1760302,3.5,233.0,1.0,"CC Fiordaliso, Via Eugenio Curiel, 25, Rozzano","restaurant,point_of_interest,food,establishment",OPERATIONAL,milan,2026-02-06T15:11:36.031406
ChIJL16w13vFhkcRxjBUu5icM08,Chicchi e fritti - Rozzano,restaurant,45.3920353,9.1747422,2.1,51.0,,"Via Eugenio Curiel, 25, Rozzano","meal_takeaway,restaurant,point_of_interest,food,establishment",OPERATIONAL,milan,2026-02-06T15:11:36.031415
ChIJbXMWGiDFhkcRoyX7qP9eVog,Smokery by Roadhouse Rozzano,restaurant,45.3922381,9.1758337,3.1,252.0,2.0,"Via Eugenio Curiel, 25 C, Rozzano","restaurant,point_of_interest,food,establishment",OPERATIONAL,milan,2026-02-06T15:11:36.031424
ChIJV8ZRX9DFhkcR4XUb_ztTtC0,Calavera Restaurant - Rozzano,restaurant,45.39212999999999,9.1759762,4.1,584.0,2.0,"Via Eugenio Curiel, 25, Milano","restaurant,point_of_interest,food,establishment",OPERATIONAL,milan,2026-02-06T15:11:36.031433
ChIJkwny3QrFhkcRoRVPUbsBFd8,Sushi Daily Rozzano Food Court,restaurant,45.39220599999999,9.1762089,3.0,1.0,2.0,"Via Eugenio Curiel, 25, Rozzano","meal_takeaway,restaurant,point_of_interest,food,establishment",OPERATIONAL,milan,2026-02-06T15:11:36.031442
ChIJs24AbJTFhkcRtlV3mv-soOA,I Love Poke - Rozzano,restaurant,45.3922712,9.1764104,4.3,764.0,2.0,"Via Eugenio Curiel, 25, Rozzano","restaurant,point_of_interest,food,establishment",OPERATIONAL,milan,2026-02-06T15:11:36.031451
ChIJh7bz_wDFhkcRBCG1hukoszI,Dispensa Emilia Fiordaliso,restaurant,45.39205740000001,9.175974799999999,4.0,256.0,2.0,"Via Eugenio Curiel, 25, Rozzano","restaurant,point_of_interest,food,establishment",OPERATIONAL,milan,2026-02-06T15:11:36.031459
ChIJB1aaATjFhkcRY9v7GqcYSq0,Giustospirito Fiordaliso,restaurant,45.3920393,9.1763695,4.2,455.0,,"Via Eugenio Curiel, 25, Rozzano","restaurant,bar,point_of_interest,food,establishment",OPERATIONAL,milan,2026-02-06T15:11:36.031469
ChIJT6h-pobFhkcRdmx2pzMyMFQ,Kebhouze - Fiordaliso,restaurant,45.39187,9.1764006,4.6,1281.0,2.0,"Via Eugenio Curiel, 25, Rozzano","restaurant,point_of_interest,food,establishment",OPERATIONAL,milan,2026-02-06T15:11:36.031479
ChIJw4UJYbrRhkcRR3iOrVjBybc,Pizza al trancio da Bea,restaurant,45.3945581,9.1691785,4.6,134.0,,"Piazza Fontana, 6, Rozzano","restaurant,point_of_interest,food,establishment",OPERATIONAL,milan,2026-02-06T15:11:36.031488
ChIJiXdky2DFhkcRbO5DZ9UEv0A,Dim Sum GO,restaurant,45.3919434,9.1782162,3.9,45.0,,"Via Eugenio Curiel, 25, Rozzano","meal_takeaway,restaurant,point_of_interest,food,establishment",OPERATIONAL,milan,2026-02-06T15:11:36.125725
ChIJv3bDCUnFhkcRI1BjBweXcNU,Rom'antica Rozzano,restaurant,45.39205860000001,9.1776205,3.5,295.0,,"Via Eugenio Curiel, 25, Rozzano","restaurant,point_of_interest,food,establishment",OPERATIONAL,milan,2026-02-06T15:11:36.125780
ChIJbbpLAIjFhkcRtNa0tBcO6tg,Le Terre - Piatti della Tradizione,restaurant,45.3912428,9.1776643,3.8,687.0,2.0,"Via Eugenio Curiel, 25, Rozzano","restaurant,point_of_interest,food,establishment",OPERATIONAL,milan,2026-02-06T15:11:36.125795
ChIJ23GrVc_EhkcR6oQArPObmr0,Autogrill,restaurant,45.3914961,9.1894011,3.7,2022.0,2.0,"A50 Tangenziale Ovest di Milano, Rozzano","supermarket,cafe,grocery_or_supermarket,bar,store,restaurant,food,point_of_interest,establishment",OPERATIONAL,milan,2026-02-06T15:11:36.257238
ChIJJ5piBfPFhkcRRB_aM2UwDTw,Chef Express - Rozzano Est 38,restaurant,45.39149500000001,9.1893509,3.9,162.0,2.0,"A50 Tangenziale Ovest di Milano, Rozzano","meal_takeaway,cafe,bar,store,restaurant,food,point_of_interest,establishment",OPERATIONAL,milan,2026-02-06T15:11:36.257278
ChIJPQX-7yDFhkcRxPLbetkW26U,Ristorante Giallo Milano,restaurant,45.3969001,9.2100887,4.1,742.0,2.0,"Via Giuseppe Ripamonti, 606, Strada Provinciale ex Strada Statale 412 della Val Tidone, 17, Milano","restaurant,food,point_of_interest,establishment",OPERATIONAL,milan,2026-02-06T15:11:36.451426
ChIJrbQf9yDFhkcR6-fc2nwOBz8,Tamoil,restaurant,45.396753,9.210361100000002,4.2,64.0,,"EX SS. 412 ""DELLA VAL TIDONE, VIA, 15, Noverasco","gas_station,pharmacy,bar,store,health,restaurant,food,point_of_interest,establishment",OPERATIONAL,milan,2026-02-06T15:11:36.451481
ChIJNZeI-iDFhkcR-sFPVLPWu5k,Il pastore,restaurant,45.3958509,9.210464400000001,4.1,548.0,1.0,"Via Noverasco, 15, Opera","restaurant,food,point_of_interest,establishment",OPERATIONAL,milan,2026-02-06T15:11:36.451491
ChIJh-3jprTFhkcRsdb59faL4Y8,Maison Leone café bistrot,restaurant,45.3950377,9.211937599999999,3.5,16.0,,"Via Enrico Fermi, 3, Opera","restaurant,food,point_of_interest,establishment",OPERATIONAL,milan,2026-02-06T15:11:36.451499
ChIJmwoqP77EhkcR43C2gzINuYw,The Refreshment of Frogs & Ranokkio,restaurant,45.4006156,9.182365900000002,4.6,242.0,2.0,"Via Pescara, 44, Milano","restaurant,food,point_of_interest,establishment",OPERATIONAL,milan,2026-02-06T15:11:36.649169
ChIJK_zbjF3DhkcRTLGDi5uYe7w,Marro Garden #Fisheria,restaurant,45.4033096,9.156676000000001,4.3,1349.0,2.0,"Via Valleambrosia, 3, Assago","restaurant,food,point_of_interest,establishment",OPERATIONAL,milan,2026-02-06T15:11:37.650477
ChIJcS-p8ZjEhkcRRFjuY9Kx4f8,Pizzeria Da Kiro Pizza da asporto,restaurant,45.4040433,9.1723005,4.0,61.0,1.0,"Via Costantino Baroni, 242, Milano","meal_delivery,restaurant,point_of_interest,food,establishment",OPERATIONAL,milan,2026-02-06T15:11:37.779454
ChIJ13yD6ZjEhkcRqupBIvl6VSo,Pizzeria Il Molo,restaurant,45.4039192,9.1724335,4.0,167.0,1.0,"Via Costantino Baroni, 244, Milano","meal_takeaway,restaurant,point_of_interest,food,establishment",OPERATIONAL,milan,2026-02-06T15:11:37.779503
ChIJZexKQpjEhkcRSKnOqLVEEOU,Antica Osteria Il Ronchettino,restaurant,45.404514,9.174146,4.4,1888.0,2.0,"Via Lelio Basso, 9, Milano","restaurant,food,point_of_interest,establishment",OPERATIONAL,milan,2026-02-06T15:11:37.908719
ChIJBcFGuITEhkcRiZH5r5O_BQI,La Pizza Pulcinella,restaurant,45.4124126,9.1737185,4.1,167.0,1.0,"Via Costantino Baroni, 12, Milano","restaurant,point_of_interest,food,establishment",OPERATIONAL,milan,2026-02-06T15:11:39.034467
ChIJRZUFlXzDhkcRpk0sBaJuIIE,Charleston,restaurant,45.4141738,9.1629618,4.0,453.0,2.0,"Via Icilio Calzolari, 1, Milano","store,bar,restaurant,point_of_interest,food,establishment",CLOSED_TEMPORARILY,milan,2026-02-06T15:11:40.212143
ChIJZYMQlXzDhkcRpPXG4oOeZ0k,Salcone Sas,restaurant,45.4140904,9.1629139,,,,"Via Icilio Calzolari, 1, Milano","restaurant,point_of_interest,food,establishment",OPERATIONAL,milan,2026-02-06T15:11:40.212182
ChIJw0avQYLEhkcR1K_egtGFBQI,Pizzeria Tramonti,restaurant,45.4155455,9.1695726,4.2,142.0,,"Via Gratosoglio, 99/A, Milano","meal_delivery,restaurant,point_of_interest,food,establishment",OPERATIONAL,milan,2026-02-06T15:11:40.346307
ChIJ7wa4d9TFhkcRiNTv5Np4TVE,ARZDORA LA PIADA ARTIGIANALE DI RIMINI,restaurant,45.413892,9.170097900000002,5.0,4.0,,"Via Gratosoglio, 60, Milano","restaurant,point_of_interest,food,establishment",OPERATIONAL,milan,2026-02-06T15:11:40.346328
ChIJ65glVw7FhkcR5WtTAAUN1HY,Da Max Hamburger House,restaurant,45.4171884,9.169952499999999,5.0,22.0,,"Via Teresa Noce, 5, Milano","restaurant,point_of_interest,food,establishment",OPERATIONAL,milan,2026-02-06T15:11:40.346333
ChIJ6yB9UYTEhkcRqgJyGAhVphc,Vita Bistrot,restaurant,45.4144386,9.175942299999999,,,,"Via dei Missaglia, 89, Milano","restaurant,food,point_of_interest,establishment",CLOSED_TEMPORARILY,milan,2026-02-06T15:11:40.486546
ChIJyzcsAYzEhkcRpViQU-S64JA,"Gustop - Ristorante, Bar, Catering",restaurant,45.414953,9.176276000000003,4.2,130.0,1.0,"Via Selvanesco, 77, Milano","restaurant,bar,food,point_of_interest,establishment",OPERATIONAL,milan,2026-02-06T15:11:40.486600
ChIJQc7k1YXEhkcRFdBUhFrjKlw,Pizzeria da Tito,restaurant,45.4162556,9.1772362,4.0,121.0,,"Via Ettore Bugatti, 11, Milano","meal_delivery,restaurant,food,point_of_interest,establishment",OPERATIONAL,milan,2026-02-06T15:11:40.486608
ChIJ0SrmfobEhkcR_Ok2mucQzVo,Shon Cafè,restaurant,45.4166489,9.1777515,4.1,531.0,1.0,"Via Ettore Bugatti, 7, Milano","bar,restaurant,food,point_of_interest,establishment",OPERATIONAL,milan,2026-02-06T15:11:40.486616
ChIJdwib-yXFhkcR0Pz0uVqxkts,Bistro' terrazze,restaurant,45.4162556,9.1772362,4.3,229.0,,"Via Ettore Bugatti, 11, Milano","restaurant,food,point_of_interest,establishment",OPERATIONAL,milan,2026-02-06T15:11:40.486623
ChIJQc7k1YXEhkcRI6btHtJ3dHk,Molini Besozzi Marzoli,restaurant,45.4162556,9.1772362,,,,"Via Ettore Bugatti, 11, Milano","restaurant,food,point_of_interest,establishment",OPERATIONAL,milan,2026-02-06T15:11:40.486629
ChIJ0decy33FhkcRLe7-f3hcsCk,Pizzeria Bugatti - Pizza al Trancio,restaurant,45.4169658,9.1781551,4.8,261.0,,"Via Ettore Bugatti, 5, Milano","meal_takeaway,restaurant,food,point_of_interest,establishment",OPERATIONAL,milan,2026-02-06T15:11:40.609523
ChIJRYh2IfzEhkcRODTGAkghhj4,Locanda Macconago Ristorante,restaurant,45.41327640000001,9.2099339,4.3,367.0,2.0,"Via Macconago, 20, Milano","restaurant,food,point_of_interest,establishment",OPERATIONAL,milan,2026-02-06T15:11:41.430531
ChIJEfq13nnDhkcRt8KjQrFWKi4,Fratelli Diversi,restaurant,45.4193261,9.157824800000002,3.7,728.0,1.0,"Via del Mare, 49, Milano","restaurant,food,point_of_interest,establishment",OPERATIONAL,milan,2026-02-06T15:11:42.675431
ChIJ_5jzlFXFhkcR1kzXvpXujP0,Ristorante pizzeria grill Il Pescatore Milano,restaurant,45.41971119999999,9.1777652,4.7,28.0,,"Via Nicola Romeo, 6, Milano","restaurant,food,point_of_interest,establishment",OPERATIONAL,milan,2026-02-06T15:11:42.956968
ChIJd11HuofEhkcRXq-UrhJM2Rw,Cristian Pizzeria Ristorante,restaurant,45.4197222,9.1777778,4.1,391.0,1.0,"Via Nicola Romeo, 6, Milano","meal_delivery,restaurant,food,point_of_interest,establishment",OPERATIONAL,milan,2026-02-06T15:11:42.957027
ChIJzbZGhxXFhkcRCf0VL31fVl8,Ristorante A Casa di Rucci,restaurant,45.4187126,9.1798734,4.6,292.0,2.0,"Via Nicola Romeo, 5, Milano","restaurant,food,point_of_interest,establishment",OPERATIONAL,milan,2026-02-06T15:11:42.957037
ChIJ2TuYqYvEhkcRZ6J0guPGTLM,Al Garghet,restaurant,45.4199474,9.192944899999999,4.5,6827.0,3.0,"Via Selvanesco, 36, Milano","meal_takeaway,restaurant,food,point_of_interest,establishment",OPERATIONAL,milan,2026-02-06T15:11:43.226724
ChIJ0ys27FnEhkcRepS2oLRBNso,Milano - Ristorante e pizzeria La Taverna,restaurant,45.4214956,9.204021400000002,4.1,777.0,2.0,"Via Giuseppe Ripamonti, 340, Milano","restaurant,food,point_of_interest,establishment",OPERATIONAL,milan,2026-02-06T15:11:43.444068
ChIJ0ys27FnEhkcRj-QM4VZxjFw,Jump In The Past di Pedonesi Rodolfo,restaurant,45.4215621,9.204149200000002,3.6,7.0,,"Via Giuseppe Ripamonti, 334, Milano","restaurant,food,point_of_interest,establishment",OPERATIONAL,milan,2026-02-06T15:11:43.444117
ChIJUXl3zKHFhkcRiHoZYQUxVaY,Trattoria Al Laghett,restaurant,45.4186668,9.237983700000001,4.1,1051.0,2.0,"Via Sant'Arialdo, 126, Milano","restaurant,food,point_of_interest,establishment",OPERATIONAL,milan,2026-02-06T15:11:44.265240
ChIJj9rmTpzDhkcRqY_WWoYbei8,Rosticceria Pizzeria del Maestro,restaurant,45.42567359999999,9.1549405,3.9,93.0,1.0,"Via Cascina Bianca, 22, Milano","restaurant,food,point_of_interest,establishment",OPERATIONAL,milan,2026-02-06T15:11:44.697316
ChIJDfnXyoHDhkcRgcYhd6Wg15A,Ristorante Erba Brusca,restaurant,45.4229157,9.167400100000002,4.2,1301.0,2.0,"Alzaia Naviglio Pavese, 286, Milano","restaurant,food,point_of_interest,establishment",OPERATIONAL,milan,2026-02-06T15:11:44.825112
ChIJ6xkCh4HDhkcRhzw2BNMpzUk,Tony Dolci,restaurant,45.42389860000001,9.1651207,4.7,43.0,,"Via Boffalora, 17, Milano","bakery,store,restaurant,food,point_of_interest,establishment",OPERATIONAL,milan,2026-02-06T15:11:44.825150
ChIJQ1j1VYDDhkcRdL5Eoe3F4jY,Carlotta Café,restaurant,45.4242366,9.168193100000002,4.3,483.0,2.0,"Alzaia Naviglio Pavese, 274, Milano","restaurant,point_of_interest,food,establishment",OPERATIONAL,milan,2026-02-06T15:11:45.463294
ChIJj_ZtmSnDhkcRa9A1kXfBJgo,Cambiopizza Café,restaurant,45.4254502,9.167737399999998,4.4,262.0,,"Via Jan Palach, Milano","bar,restaurant,point_of_interest,food,establishment",OPERATIONAL,milan,2026-02-06T15:11:45.463349
ChIJodU60vjDhkcRag9KD9H2i-I,Jamaica a Milano | Home Restaurant,restaurant,45.4255488,9.1666479,5.0,6.0,,"Via Jan Palach, Milano","restaurant,point_of_interest,food,establishment",OPERATIONAL,milan,2026-02-06T15:11:45.463359
ChIJFygFyYDDhkcRfk4vjOQE7CM,Osteria Della Conca Fallata,restaurant,45.42608459999999,9.169751099999997,4.4,559.0,2.0,"Via della Chiesa Rossa, 113, Milano","restaurant,point_of_interest,food,establishment",OPERATIONAL,milan,2026-02-06T15:11:45.463376
ChIJOebqxmfDhkcRuS7Dozyb6Pw,Pizzeria Cento11,restaurant,45.4262665,9.1698909,4.1,63.0,,"Via della Chiesa Rossa, 111, Milano","restaurant,point_of_interest,food,establishment",OPERATIONAL,milan,2026-02-06T15:11:45.463384
ChIJ76ds0H3EhkcRYh4U8RswVDA,Trattoria Isola Anita,restaurant,45.4225393,9.1766136,4.2,339.0,2.0,"Via dei Missaglia, 48, Milano","restaurant,food,point_of_interest,establishment",OPERATIONAL,milan,2026-02-06T15:11:45.584275
ChIJ_auELHzEhkcRv3USTjK6XCM,Pizzeria 40,restaurant,45.4235541,9.1767477,4.4,151.0,1.0,"Via dei Missaglia, 40, Milano","meal_takeaway,restaurant,food,point_of_interest,establishment",OPERATIONAL,milan,2026-02-06T15:11:45.584320
ChIJ7R1JN1rEhkcRZAm9fiVi3_o,Melara Restaurant,restaurant,45.4244956,9.203449599999997,4.4,957.0,2.0,"Via Giuseppe Ripamonti, 294, Milano","restaurant,food,point_of_interest,establishment",OPERATIONAL,milan,2026-02-06T15:11:46.068511
ChIJcVES2KrDhkcRcWK5Ik-K9C0,Gestrist S.A.S. Di Roberto Tinella & C.,restaurant,45.42609539999999,9.127879399999998,,,,"Via Cascina Molino Bruciato, Buccinasco","restaurant,food,point_of_interest,establishment",OPERATIONAL,milan,2026-02-06T15:11:47.079957
ChIJJbajzrjDhkcRYl9Ur9s6sBs,Amuninni,restaurant,45.4239618,9.128384700000002,3.7,408.0,2.0,"Via Indipendenza, 3, Buccinasco","restaurant,liquor_store,bar,store,food,point_of_interest,establishment",OPERATIONAL,milan,2026-02-06T15:11:47.079998
ChIJXQEFPADDhkcR7-eLqdvGizg,Armonia Ristorante Pizzeria,restaurant,45.4239612,9.1283856,4.5,2.0,,"Via Indipendenza, 3, Buccinasco","restaurant,food,point_of_interest,establishment",OPERATIONAL,milan,2026-02-06T15:11:47.080003
ChIJZY-oiqbDhkcR7GDwC4xBGhc,La Corte Della Risaia Ristorante,restaurant,45.4277157,9.1399055,4.0,575.0,2.0,"Via Bardolino, 30, Milano","bar,restaurant,food,point_of_interest,establishment",OPERATIONAL,milan,2026-02-06T15:11:47.199088
ChIJA1SukYfDhkcRreLMqiPWjG8,Pizzeria Nord & Sud,restaurant,45.429206,9.1715536,3.9,83.0,,"Via della Chiesa Rossa, 73, Milano","restaurant,food,point_of_interest,establishment",OPERATIONAL,milan,2026-02-06T15:11:47.628543
ChIJKSP5g6vDhkcRvjCwS8Q_5UM,Motelombroso,restaurant,45.4267624,9.169439900000002,4.6,204.0,,"Alzaia Naviglio Pavese, 256, Milano","restaurant,food,point_of_interest,establishment",OPERATIONAL,milan,2026-02-06T15:11:47.628587
ChIJKTMPTADDhkcRqnP9Xoemees,Borgo 109,restaurant,45.4264269,9.1702404,4.3,97.0,,"Via della Chiesa Rossa, 109, Milano","restaurant,food,point_of_interest,establishment",OPERATIONAL,milan,2026-02-06T15:11:47.628607
ChIJXR4djofDhkcR-rXygmgZAzU,Cose Nostre,restaurant,45.4294234,9.1716822,4.4,3351.0,2.0,"Via della Chiesa Rossa, 71, Milano","restaurant,grocery_or_supermarket,store,food,point_of_interest,establishment",OPERATIONAL,milan,2026-02-06T15:11:47.628615
ChIJG7WLjYfDhkcRrWklijTA5RI,San Tommaso,restaurant,45.4296157,9.171822599999999,3.4,61.0,2.0,"Via della Chiesa Rossa, 69, Milano","restaurant,meal_takeaway,food,point_of_interest,establishment",OPERATIONAL,milan,2026-02-06T15:11:47.628622
ChIJwWPvlGnFhkcRafQmqI9ud6Q,Majuda,restaurant,45.42709929999999,9.178510100000002,4.2,283.0,2.0,"Via dei Missaglia, 13, Milano","bar,store,restaurant,food,point_of_interest,establishment",OPERATIONAL,milan,2026-02-06T15:11:47.750952
ChIJVe5AqXDEhkcRhRBqjzr8f9w,Mediterraneo,restaurant,45.43035219999999,9.1785983,3.0,211.0,,"Via Medeghino, 39, Milano","cafe,restaurant,food,point_of_interest,establishment",OPERATIONAL,milan,2026-02-06T15:11:48.400018
ChIJLbMdTe_FhkcRYnpY1KPwTEg,BALI'S KEBAP GRILL PIZZA BAR,restaurant,45.43068009999999,9.178440499999999,4.5,47.0,,"Via Medeghino, 34, Milano","restaurant,food,point_of_interest,establishment",OPERATIONAL,milan,2026-02-06T15:11:48.400037
ChIJPURUc0PEhkcRlHEbIfY_y5s,Lo Stacco Dinner Show,restaurant,45.4308199,9.1995684,4.0,1288.0,2.0,"Via Noto, 8, Milano","restaurant,night_club,food,point_of_interest,establishment",OPERATIONAL,milan,2026-02-06T15:11:48.646239
ChIJ-UQBEVvEhkcR47cISKXx8g0,Il Riccio Di Mare,restaurant,45.4264761,9.200971700000002,4.4,1107.0,2.0,"Via Muzio Attendolo Detto Sforza, 5, Milano","restaurant,food,point_of_interest,establishment",OPERATIONAL,milan,2026-02-06T15:11:48.646274
ChIJn3WMSlvEhkcR377lN1Ejep0,Pizzeria Oscar,restaurant,45.4283501,9.202434600000002,4.2,192.0,1.0,"Via Giuseppe Ripamonti, 244, Milano","restaurant,food,point_of_interest,establishment",OPERATIONAL,milan,2026-02-06T15:11:48.646283
ChIJoYIixVrEhkcRtFdHeDioc7A,Il Coccodrillo,restaurant,45.4274586,9.2046373,3.9,189.0,1.0,"Via dei Guarneri, 11, Milano","restaurant,food,point_of_interest,establishment",OPERATIONAL,milan,2026-02-06T15:11:48.646292
ChIJUZ0ExETEhkcR-hGZBQQ8D3s,Pane e... Delizie,restaurant,45.42929119999999,9.2033324,4.5,199.0,2.0,"Via Val di Sole, 21, Milano","bakery,restaurant,food,store,point_of_interest,establishment",OPERATIONAL,milan,2026-02-06T15:11:48.646312
ChIJd8o_nETEhkcRTNvAJFguTVE,La bottega della pizza,restaurant,45.4298733,9.202053299999998,4.7,240.0,,"Via Giuseppe Ripamonti, 218, Milano","meal_takeaway,restaurant,food,point_of_interest,establishment",OPERATIONAL,milan,2026-02-06T15:11:48.646320
ChIJdcCNDZHFhkcRNnmMaZGLQZY,Ai Due Orsi,restaurant,45.4276963,9.2496215,4.4,1095.0,2.0,"Via Privata Fidenza, 1, Milano","restaurant,food,point_of_interest,establishment",OPERATIONAL,milan,2026-02-06T15:11:49.700195
ChIJYfTMYAHFhkcRcgRuDbN4Lzg,Locanda 2 orsi,restaurant,45.42764689999999,9.2499766,5.0,6.0,,"Via Privata Fidenza, 4, Milano","restaurant,food,point_of_interest,establishment",OPERATIONAL,milan,2026-02-06T15:11:49.700237
ChIJM-dx-dfFhkcRLTg063w8bDw,McDonald’s Milano Rogoredo,restaurant,45.4263558,9.250322299999999,4.2,2619.0,1.0,"Via Rogoredo, 110, Milano","restaurant,food,point_of_interest,establishment",OPERATIONAL,milan,2026-02-06T15:11:49.700243
ChIJrXxTTKnFhkcRH8n2dFm5sBI,Ceylon Gusto,restaurant,45.4271777,9.250279,5.0,18.0,,"Via Rogoredo, 99, San Donato Milanese","restaurant,food,point_of_interest,establishment",OPERATIONAL,milan,2026-02-06T15:11:49.700249
ChIJH8QnBQDFhkcRcCPXkPUXSiY,Kebab,restaurant,45.4307639,9.2457284,5.0,1.0,,"Via Monte Popera, 6, Milano","restaurant,food,point_of_interest,establishment",OPERATIONAL,milan,2026-02-06T15:11:49.700253
ChIJ10UPNZTFhkcRMs9KXMJ7Cbs,Pizzeria da Omar,restaurant,45.43085689999999,9.245864399999999,4.5,207.0,1.0,"Via Monte Popera, 8, Milano","restaurant,food,point_of_interest,establishment",OPERATIONAL,milan,2026-02-06T15:11:49.700259
ChIJm8uBBgDFhkcRd4GXWIb--bM,Tri basei,restaurant,45.4262137,9.2513464,5.0,1.0,,"Via Rogoredo, Milano","restaurant,point_of_interest,food,establishment",OPERATIONAL,milan,2026-02-06T15:11:49.851025
ChIJRfODANTFhkcRSJLyZL8Yv7Y,SANTA SOFIA PIZZA - KEBAP - GRILL,restaurant,45.4260292,9.2515296,4.7,197.0,,"Via Rogoredo, 119, Milano","restaurant,point_of_interest,food,establishment",OPERATIONAL,milan,2026-02-06T15:11:49.851041
ChIJQ7UpCL_FhkcRPlst4CAD3ns,Turkish kebap pizzeria grill,restaurant,45.426016,9.251516700000002,4.5,99.0,,"Via Rogoredo, 119, San Donato Milanese","restaurant,point_of_interest,food,establishment",OPERATIONAL,milan,2026-02-06T15:11:49.851047
ChIJ4bigPpDFhkcR6g6D__NfRmo,Birrificio di Ringhiera,restaurant,45.42591209999999,9.251674,4.9,222.0,1.0,"Via Rogoredo, 119, Milano","bar,restaurant,point_of_interest,food,establishment",OPERATIONAL,milan,2026-02-06T15:11:49.851051
ChIJdRU0KFXFhkcRiJPomwXMra8,Santa Sofia 2 Myk,restaurant,45.42586969999999,9.2517503,,,,"Via Marignano, 1, Milano","restaurant,point_of_interest,food,establishment",OPERATIONAL,milan,2026-02-06T15:11:49.851055
ChIJPTydG5DFhkcR0rOW3ztN__U,Ristorante I Tri Basei | trattoria meneghina,restaurant,45.42536,9.252182999999999,4.3,1221.0,2.0,"Via Emilia, 54, San Donato Milanese","restaurant,point_of_interest,food,establishment",OPERATIONAL,milan,2026-02-06T15:11:49.851059
ChIJiVea_I_FhkcRC1SFJtvLonw,Bar Trattoria San Martino,restaurant,45.4249,9.252819599999999,4.2,317.0,1.0,"Via Emilia, 34, San Donato Milanese","restaurant,cafe,store,bar,point_of_interest,food,establishment",OPERATIONAL,milan,2026-02-06T15:11:49.851063
ChIJvYQlTVPChkcRPPjsYKpl24A,Ristorante pizzeria pub Pianeta Verde,restaurant,45.43068270000001,9.126413699999999,4.0,864.0,2.0,"Via Buccinasco, 45, Milano","restaurant,food,point_of_interest,establishment",OPERATIONAL,milan,2026-02-06T15:11:49.968835
ChIJnxSzUb3DhkcREFfID-_dKFs,Ristorante Bel Sit Milano,restaurant,45.433305,9.149904,4.0,497.0,2.0,"Via Barona, 51, Milano","restaurant,food,point_of_interest,establishment",OPERATIONAL,milan,2026-02-06T15:11:50.507011
ChIJZ9-_vbLDhkcRhhm7vyx4ftU,Mensa Aziendale Ospedale San Paolo,restaurant,45.43419979999999,9.159258999999999,1.0,1.0,,"Via Antonio di Rudinì, 8, Milano","restaurant,food,point_of_interest,establishment",OPERATIONAL,milan,2026-02-06T15:11:50.632480
ChIJo1mOcYXDhkcRDv3lTo-bgEs,Ristorante Il Ciclone 2,restaurant,45.4337057,9.1641474,3.8,88.0,1.0,"Via San Paolino, 2, Milano","restaurant,point_of_interest,food,establishment",OPERATIONAL,milan,2026-02-06T15:11:50.756919
ChIJWRHL1JrDhkcRdaXN72zfHrk,Ò-ste | Birreria e taverna con cucina,restaurant,45.43164439999999,9.173017199999999,4.6,107.0,,"Via della Chiesa Rossa, 53, Milano","bar,restaurant,point_of_interest,food,establishment",OPERATIONAL,milan,2026-02-06T15:11:50.882026
ChIJA0dt8yHDhkcRBpo34gO1Q-g,L'Isola della Pizza,restaurant,45.4322005,9.1732557,4.2,1080.0,2.0,"Via della Chiesa Rossa, 47, Milano","restaurant,point_of_interest,food,establishment",OPERATIONAL,milan,2026-02-06T15:11:50.882051
ChIJ4wIzCQDDhkcRw-rmLiVpAtI,Pizzeria Don Rodrigo,restaurant,45.4337597,9.1726623,4.9,18.0,,"Via Don Rodrigo, 2, Milano","restaurant,point_of_interest,food,establishment",OPERATIONAL,milan,2026-02-06T15:11:50.882058
ChIJBxIcGHfEhkcR75R7luyxVg4,Maison Milano,restaurant,45.4319111,9.1771089,4.0,1687.0,2.0,"Via Lodovico Montegani, 68, Milano","bar,restaurant,food,point_of_interest,establishment",OPERATIONAL,milan,2026-02-06T15:11:51.018103
ChIJ8-AqJnbEhkcRSFT6mg0PsYI,Ristorante Podkova,restaurant,45.43380030000001,9.174032400000002,4.6,506.0,2.0,"Via della Chiesa Rossa, 25, Milano","restaurant,food,point_of_interest,establishment",OPERATIONAL,milan,2026-02-06T15:11:51.018152
ChIJmYulHnfEhkcRdilNbaGMOag,Ai Tre Gradini,restaurant,45.4338298,9.178085399999997,4.1,702.0,2.0,"Via Anton Giulio Barrili, 24, Milano","restaurant,food,point_of_interest,establishment",OPERATIONAL,milan,2026-02-06T15:11:51.018163
ChIJH98PSUnFhkcRrdGuCaItAX0,Ristorante Villa,restaurant,45.4324223,9.177422499999999,4.1,165.0,1.0,"Via Lodovico Montegani, 64, Milano","meal_takeaway,restaurant,food,point_of_interest,establishment",OPERATIONAL,milan,2026-02-06T15:11:51.018174
ChIJj31fm8_FhkcRLm5SZWGNIAQ,Cochiloko,restaurant,45.43290429999999,9.177422,,,,"Via Neera, 22, Milano","restaurant,food,point_of_interest,establishment",OPERATIONAL,milan,2026-02-06T15:11:51.018188
ChIJV_HA63bEhkcR5SJe_-0n9CQ,AULAD ABU SETA,restaurant,45.4337967,9.177966099999999,,,,"Via Lodovico Montegani, Milano","restaurant,food,point_of_interest,establishment",OPERATIONAL,milan,2026-02-06T15:11:51.018200
ChIJcbKt0AbFhkcRli6fEQy7FZA,Rajmahal Restora রাজমহল রেস্তরা,restaurant,45.4338748,9.1780314,4.2,13.0,,"Via Anton Giulio Barrili, 24, Milano","restaurant,food,point_of_interest,establishment",OPERATIONAL,milan,2026-02-06T15:11:51.018209
ChIJyxPw6nbEhkcRZEl0vexLmnI,Rosticceria Pizza&Kebab,restaurant,45.4338707,9.1780965,,,,"Via Anton Giulio Barrili, 24, Milano","restaurant,food,point_of_interest,establishment",OPERATIONAL,milan,2026-02-06T15:11:51.018216
ChIJ5Y1KWQDFhkcRkMW_Jvm109Q,il capriccio,restaurant,45.4317016,9.181487200000001,2.4,7.0,,"Via Medeghino, 15, Milano","meal_takeaway,restaurant,food,point_of_interest,establishment",OPERATIONAL,milan,2026-02-06T15:11:51.647580
ChIJfZejSszFhkcRz_OVqfk-kag,Bar Felice Cucina cinese • Sushi,restaurant,45.4328071,9.1825852,4.2,81.0,,"Via Medeghino, 4, Milano","restaurant,food,point_of_interest,establishment",OPERATIONAL,milan,2026-02-06T15:11:51.647612
ChIJu7B643HEhkcR-So3EIirsq4,Ristorante Cesare,restaurant,45.4338233,9.185408599999999,4.4,516.0,2.0,"Via Lorenzo Valla, 25, Milano","restaurant,food,point_of_interest,establishment",OPERATIONAL,milan,2026-02-06T15:11:51.647626
ChIJH6P4p27EhkcRm4GVpA31-yM,Quark Hotel Milano,restaurant,45.43441549999999,9.1900006,4.2,1653.0,,"Via Lampedusa, 11A, Milano","lodging,restaurant,food,point_of_interest,establishment",OPERATIONAL,milan,2026-02-06T15:11:51.800906
ChIJVxvLn0zFhkcREoBEzTar6Gk,Ristorante Morbido - Quark Hotel Milano,restaurant,45.4342189,9.1898682,4.3,38.0,,"Via Lampedusa, 11/A, Milano","restaurant,food,point_of_interest,establishment",OPERATIONAL,milan,2026-02-06T15:11:51.800929
ChIJNV0ddGnEhkcR7P6FpJ7mXsA,Ristorante 4cento,restaurant,45.433456,9.193869900000001,4.2,1663.0,2.0,"Via Campazzino, 14, Milano","restaurant,park,food,point_of_interest,establishment",OPERATIONAL,milan,2026-02-06T15:11:51.930888
ChIJMwHjfUPEhkcRCO1rTCQ8y8o,Osteria SPQ,restaurant,45.43132229999999,9.201604999999997,4.3,1183.0,2.0,"Via Giuseppe Ripamonti, 204, Milano","restaurant,point_of_interest,food,establishment",OPERATIONAL,milan,2026-02-06T15:11:52.067581
ChIJiQ3v6szFhkcRaeEs23NCaXw,Captain Cook,restaurant,45.4334692,9.200876599999999,,,,"Via Giuseppe Ripamonti, 186, Milano","restaurant,point_of_interest,food,establishment",OPERATIONAL,milan,2026-02-06T15:11:52.067631
ChIJa7adSSXFhkcRmb4r3NeyP9I,Istanbul Turkish kebap,restaurant,45.433501,9.200884,4.8,79.0,,"Via Giuseppe Ripamonti, 186, Milano","restaurant,point_of_interest,food,establishment",OPERATIONAL,milan,2026-02-06T15:11:52.067642
ChIJ5bj1ZEHEhkcRewlJ5dimQhY,Il Mago,restaurant,45.433739,9.200911000000001,4.2,701.0,1.0,"Via Giuseppe Ripamonti, 184, Milano","restaurant,meal_takeaway,point_of_interest,food,establishment",OPERATIONAL,milan,2026-02-06T15:11:52.067652
ChIJE8bJiqbFhkcRhhWMVdgaWI0,Ripamonti Cafè,restaurant,45.4338691,9.2008958,4.7,32.0,,"Via Giuseppe Ripamonti, 182, Milano","restaurant,point_of_interest,food,establishment",OPERATIONAL,milan,2026-02-06T15:11:52.067661
ChIJ-z4jnpHFhkcRG4PtfmcCav4,Annaré - Via Bianconi,restaurant,45.4343869,9.204457999999999,4.1,369.0,2.0,"Via Carlo Bianconi, 7, Milano","restaurant,food,point_of_interest,establishment",OPERATIONAL,milan,2026-02-06T15:11:52.213728
ChIJSVKFeR7FhkcRUPz47g99rRg,Osteria Sette,restaurant,45.4345742,9.2044321,4.5,20.0,,"Via Carlo Bianconi, 7, Milano","restaurant,food,point_of_interest,establishment",CLOSED_TEMPORARILY,milan,2026-02-06T15:11:52.213781
ChIJW2xv0XXFhkcRHIaZgRdaJWI,MIROSA S.R.L.,restaurant,45.4347077,9.20383,5.0,4.0,,"Via Carlo Bianconi, 8, Milano","bakery,meal_takeaway,restaurant,food,store,point_of_interest,establishment",OPERATIONAL,milan,2026-02-06T15:11:52.213791
ChIJ0yEx47TFhkcRaUGJevb6gB4,Gobbato Bakery,restaurant,45.4334603,9.2222134,4.6,1151.0,1.0,"Via Nicolò Barabino, 7, Milano","bakery,meal_takeaway,store,restaurant,food,point_of_interest,establishment",OPERATIONAL,milan,2026-02-06T15:11:52.468071
ChIJgbZU2krEhkcRb2LjnJwSbP8,Los reyes del sabor,restaurant,45.4346334,9.2197643,4.5,19.0,,"Via dei Cinquecento, 25, Milano","restaurant,food,point_of_interest,establishment",OPERATIONAL,milan,2026-02-06T15:11:52.468101
ChIJ3T3t8UrEhkcRCFmWtAzLMR4,Do Re Mi La Nota Del Sabor,restaurant,45.43514330000001,9.218567600000002,3.8,511.0,1.0,"Via San Dionigi, 21, Milano","restaurant,food,point_of_interest,establishment",OPERATIONAL,milan,2026-02-06T15:11:52.468115
ChIJXfvK7ErEhkcRj1tx1DV0dWc,Pizzeria Casablanca,restaurant,45.4353944,9.219001200000001,,,,"Via Ravenna, 20, Milano","restaurant,food,point_of_interest,establishment",OPERATIONAL,milan,2026-02-06T15:11:52.468119
ChIJazccpbfFhkcRDBUscnAi__g,Sporting Corvetto,restaurant,45.4335018,9.2295826,4.2,398.0,,"Via Fabio Massimo, 15/4, Milano","school,bar,health,restaurant,food,point_of_interest,establishment",OPERATIONAL,milan,2026-02-06T15:11:52.587820
ChIJnSSSbbbFhkcRhRhIeu-XiE4,Casottel,restaurant,45.4345432,9.227407200000002,4.1,1141.0,2.0,"Via Fabio Massimo, 25, Milano","restaurant,food,point_of_interest,establishment",OPERATIONAL,milan,2026-02-06T15:11:52.587880
ChIJOff3lrjFhkcRB1vfhP2iZJ0,Pizzeria - Kebab Mar Rosso,restaurant,45.43456380000001,9.236501200000001,4.3,143.0,1.0,"Via Giovanni Battista Cassinis, 63, Milano","restaurant,food,point_of_interest,establishment",OPERATIONAL,milan,2026-02-06T15:11:53.105566
ChIJ69oPkJXFhkcR1l46jZQT04U,Panificio Pasticceria Frusconi | Servizio Catering - Buffet Milano,restaurant,45.4316451,9.243899899999999,4.7,318.0,2.0,"Via Monte Palombino, 4, Milano","bakery,meal_takeaway,store,restaurant,food,point_of_interest,establishment",OPERATIONAL,milan,2026-02-06T15:11:53.105599
ChIJ5fayh0vFhkcRHPYCf9SG2L4,POST OFFICE,restaurant,45.4331349,9.238415900000001,4.3,142.0,,"Via Giovanni Battista Cassinis, 76, Milano","bar,restaurant,food,point_of_interest,establishment",OPERATIONAL,milan,2026-02-06T15:11:53.105605
ChIJoZe3ML_FhkcRLsNXOLTFrhk,Juice Bar - Milano Rogoredo,restaurant,45.4336891,9.238664,2.4,98.0,,"Via Giovanni Battista Morgagni, Milano","cafe,meal_takeaway,bar,store,restaurant,food,point_of_interest,establishment",OPERATIONAL,milan,2026-02-06T15:11:53.105611
ChIJdaYX6arFhkcRUO7qmWhTN28,Pizzikotto,restaurant,45.433551,9.2399834,4.3,861.0,2.0,"Via Luigi Russolo, 5, Milano","meal_takeaway,restaurant,food,point_of_interest,establishment",OPERATIONAL,milan,2026-02-06T15:11:53.105617
ChIJrXLWw2zFhkcR5_e_7Pg3KYs,Panino Giusto,restaurant,45.4339395,9.240102799999999,4.2,78.0,,"Via Luigi Russolo, 6, Milano","restaurant,food,point_of_interest,establishment",OPERATIONAL,milan,2026-02-06T15:11:53.105622
ChIJe9kRivzFhkcRwe5sfR2sT-o,Flower Burger,restaurant,45.433995,9.240215800000001,4.5,167.0,2.0,"Via Luigi Russolo, 5, Milano","restaurant,food,point_of_interest,establishment",OPERATIONAL,milan,2026-02-06T15:11:53.105627
ChIJvaHJYdbFhkcRfgUvPYbnLdM,Shi's,restaurant,45.4339399,9.2405238,4.5,471.0,2.0,"Via Luigi Russolo, 5, Milano","meal_takeaway,restaurant,food,point_of_interest,establishment",OPERATIONAL,milan,2026-02-06T15:11:53.105632
ChIJUTw5HRrFhkcRoHGx8jCGWBs,La piadineria,restaurant,45.43406390000001,9.240213400000002,3.8,159.0,1.0,"Via Luigi Russolo, 6, Milano","restaurant,food,point_of_interest,establishment",OPERATIONAL,milan,2026-02-06T15:11:53.105637
ChIJc3tyOVHFhkcRMYB2fDCO_bM,Bowls And More,restaurant,45.43414079999999,9.239939099999999,3.7,18.0,,"Via Luigi Russolo, 5, Milano","restaurant,food,point_of_interest,establishment",CLOSED_TEMPORARILY,milan,2026-02-06T15:11:53.105642
ChIJJXlt3pHFhkcRcmow4t5qApk,Bun Burgers - Santa Giulia,restaurant,45.4344097,9.240075299999999,4.0,124.0,2.0,"Via Luigi Russolo, 5, Milano","restaurant,food,point_of_interest,establishment",OPERATIONAL,milan,2026-02-06T15:11:53.105647
ChIJUdn1MxLFhkcRKKe7335mPV0,Osteria di Rogoredo,restaurant,45.43133939999999,9.2435209,4.2,100.0,1.0,"Via Monte Palombino, 2, Milano","restaurant,food,point_of_interest,establishment",OPERATIONAL,milan,2026-02-06T15:11:53.105653
ChIJEZuAtIvFhkcRZMKcZvin3PE,Pizzeria Stella di Rogoredo,restaurant,45.4314038,9.243675099999997,3.9,234.0,,"Via Monte Palombino, 2, Milano","restaurant,food,point_of_interest,establishment",OPERATIONAL,milan,2026-02-06T15:11:53.105659
ChIJZQzampXFhkcRZL2BD4aS6j8,Kappa's Cafe',restaurant,45.431822,9.243717100000001,4.5,26.0,,"Via Monte Palombino, 7, Milano","store,restaurant,food,point_of_interest,establishment",OPERATIONAL,milan,2026-02-06T15:11:53.105664
ChIJNdQFjHnFhkcRIZHeyDyIqUk,Scirocco by mare culturale urbano,restaurant,45.4351415,9.240486899999999,3.9,115.0,,"Piazza Tina Modotti, 7, Milano","restaurant,food,point_of_interest,establishment",OPERATIONAL,milan,2026-02-06T15:11:53.105670
ChIJYT72txTFhkcRg3FX5PxCIKo,Lezzet Istanbul Rogoredo,restaurant,45.4316673,9.2448294,4.6,86.0,,"Via Freiköfel, 15, Milano","restaurant,food,point_of_interest,establishment",OPERATIONAL,milan,2026-02-06T15:11:53.728253
ChIJuyoXFzvFhkcRGtTtYSoZ6FU,Ristorante 4420 Simple Street Food,restaurant,45.42938609999999,9.256494000000002,3.5,2.0,,"Via Giuseppe Impastato, Milano","restaurant,food,point_of_interest,establishment",OPERATIONAL,milan,2026-02-06T15:11:53.841067
ChIJrefgIIzFhkcRmTJzWUd8mCU,[l'officina] bici & caffè,restaurant,45.428853,9.257845,4.8,305.0,1.0,"Piazza IX Novembre 1989, San Donato Milanese","bar,bicycle_store,cafe,parking,restaurant,food,store,point_of_interest,establishment",OPERATIONAL,milan,2026-02-06T15:11:53.959116
ChIJK5oBy_TFhkcRukBcGzN9IrA,McDonald's,restaurant,45.4333229,9.2629442,3.5,3545.0,1.0,"Strada Provinciale ex Strada Statale 415 Paullese, 9, Milano","restaurant,food,point_of_interest,establishment",OPERATIONAL,milan,2026-02-06T15:11:53.959158
ChIJ2bM3Jx7DhkcRhifyWquGiXI,Piper Karaoke,restaurant,45.43708059999999,9.1206797,3.8,41.0,,"Via Privata Mulino, 1, Buccinasco","restaurant,point_of_interest,food,establishment",CLOSED_TEMPORARILY,milan,2026-02-06T15:11:54.222861
ChIJH94G6lHChkcR5RuQ8j3M_VY,IQOS PREMIUM PARTNER BUCCINASCO,restaurant,45.4347246,9.120894200000002,4.1,657.0,1.0,"Via Andrea Mantegna, 31, Buccinasco","bar,restaurant,point_of_interest,food,establishment",OPERATIONAL,milan,2026-02-06T15:11:54.222917
ChIJa9cpMgDDhkcROEB_NwoZahM,Romantica Pizza & Restaurant,restaurant,45.4346361,9.1208618,4.6,9.0,,"Via Andrea Mantegna, 31, Buccinasco","restaurant,point_of_interest,food,establishment",OPERATIONAL,milan,2026-02-06T15:11:54.222928
ChIJ9bT0WU7ChkcRR1d_8dkApd4,Ono Sushi Experience,restaurant,45.4370831,9.120627200000001,4.2,2217.0,2.0,"Via Privata Mulino, 1, Buccinasco","restaurant,point_of_interest,food,establishment",OPERATIONAL,milan,2026-02-06T15:11:54.222937
ChIJB8PYdlHChkcRgpS3xIQGoBc,Griglieri,restaurant,45.4324752,9.1203538,,,,"Via degli Alpini, Buccinasco","restaurant,point_of_interest,food,establishment",OPERATIONAL,milan,2026-02-06T15:11:54.222948
ChIJHRELrCnDhkcRUuOPe_798ig,ICE GUY Gelateria Artigianale,restaurant,45.432266,9.120401,4.2,206.0,2.0,"Via degli Alpini, 48/B, Buccinasco","store,restaurant,point_of_interest,food,establishment",OPERATIONAL,milan,2026-02-06T15:11:54.222957
ChIJVZNLR2zohkcRIedpoOmT4Hc,Egyption Bar Tabacchi,restaurant,45.4343502,9.117609,4.3,15.0,,"Via Filippo Turati, 21, Corsico","cafe,meal_takeaway,store,restaurant,point_of_interest,food,establishment",OPERATIONAL,milan,2026-02-06T15:11:54.222966
ChIJr_AIWUXChkcRUEt2QU-RLqQ,Pizzeria Sant'Elena,restaurant,45.4357116,9.1167224,3.3,206.0,1.0,"Via Filippo Turati, 1G, Corsico","meal_delivery,restaurant,point_of_interest,food,establishment",OPERATIONAL,milan,2026-02-06T15:11:54.222975
ChIJG3SVOADDhkcRZ_sQVRA926Q,Miya Tara (bigiotteria),restaurant,45.43919429999999,9.126747199999999,,,,"Via Lodovico Il Moro, 185, Milano","restaurant,food,point_of_interest,establishment",OPERATIONAL,milan,2026-02-06T15:11:54.317415
ChIJNSdDLwrDhkcRkvawxHj5E1E,CIAO Machan restaurant,restaurant,45.4351738,9.1453133,2.3,3.0,,"Via Davide Campari, 9, Milano","restaurant,food,point_of_interest,establishment",OPERATIONAL,milan,2026-02-06T15:11:54.491588
ChIJPQdAh7zDhkcRqT9xlHyv3K0,Smeraldo 2,restaurant,45.43525150000001,9.145760200000002,4.0,56.0,,"Via Teramo, 31, Milano","meal_takeaway,restaurant,food,point_of_interest,establishment",OPERATIONAL,milan,2026-02-06T15:11:54.491647
ChIJH_NM3y3DhkcR60TobSSfuZc,MANDUKA IL GUSTO DEL BUON CIBO,restaurant,45.43703370000001,9.1471635,,,,"Viale Faenza, Milano","restaurant,food,point_of_interest,establishment",OPERATIONAL,milan,2026-02-06T15:11:54.491658
ChIJJVf5_jDEhkcRzD1JRSHzaXs,Musikahan Filipino Restaurant,restaurant,45.43884389999999,9.149313399999999,4.5,324.0,1.0,"Via Bari, 11/l, Milano","restaurant,food,point_of_interest,establishment",OPERATIONAL,milan,2026-02-06T15:11:54.713726
ChIJAQDwX77DhkcR8ZSQPxQ-x7c,Fuoripizza Senza Glutine a Domicilio,restaurant,45.43877129999999,9.1492786,3.4,105.0,,"Via Bari, 11/N, Milano","meal_delivery,restaurant,food,point_of_interest,establishment",OPERATIONAL,milan,2026-02-06T15:11:54.713780
ChIJ5f0ICwDDhkcRqE4WLg3BKa4,ristorante di krusty krab,restaurant,45.4363117,9.149466000000002,,,,"Viale Faenza, Milano","restaurant,food,point_of_interest,establishment",OPERATIONAL,milan,2026-02-06T15:11:54.713791
ChIJKyC1J5bDhkcRGmmoHPWSAPQ,Panificio 24h24,restaurant,45.4353926,9.151126799999998,4.4,28.0,,"Via Lago di Nemi, 25, Milano","restaurant,food,point_of_interest,establishment",OPERATIONAL,milan,2026-02-06T15:11:54.713801
ChIJhbmFX77DhkcRRx5y1eyBNLs,Pizzeria Sant'Andrea,restaurant,45.43877029999999,9.1493295,3.3,43.0,,"Via Bari, 11, Milano","restaurant,food,point_of_interest,establishment",OPERATIONAL,milan,2026-02-06T15:11:54.713811
ChIJ_98vf5bDhkcRpQPkk9xwF38,La Boutique della Pizza,restaurant,45.4367577,9.1544089,4.6,306.0,1.0,"Via Voltri, 4, Milano","restaurant,food,point_of_interest,establishment",OPERATIONAL,milan,2026-02-06T15:11:54.713819
ChIJPahDh5bDhkcRXRGQL0-oP9s,Yamakawa,restaurant,45.4368015,9.1544078,4.0,412.0,1.0,"Viale Faenza, 1, Milano","meal_delivery,restaurant,food,point_of_interest,establishment",OPERATIONAL,milan,2026-02-06T15:11:54.713828
ChIJO2vB05XDhkcR8fealjaPNpo,Saray Döner Kebap - Pizza - Grill - Forno a legna,restaurant,45.437416,9.1540702,3.9,147.0,,"Piazza Guglielmo Miani, 4, Milano","restaurant,food,point_of_interest,establishment",OPERATIONAL,milan,2026-02-06T15:11:54.713837
ChIJdzDZVZHDhkcR64fGWyxoRBo,GS S.p.a.,restaurant,45.43668249999999,9.1576604,4.0,29.0,,"Viale Famagosta, 16, Milano","restaurant,point_of_interest,food,establishment",OPERATIONAL,milan,2026-02-06T15:11:55.377624
ChIJi5D8p5bDhkcRcKFaw9CFeUQ,Pizza Al Trancio,restaurant,45.4368602,9.1564768,4.5,554.0,1.0,"Viale Famagosta, 8, Milano","meal_takeaway,restaurant,point_of_interest,food,establishment",OPERATIONAL,milan,2026-02-06T15:11:55.377671
ChIJGz66_ZPDhkcRfbGnlcXUR9w,Mara Pizza & Sfizi Pizza Da Asporto,restaurant,45.43693589999999,9.1578869,4.6,25.0,,"Viale Famagosta, 20, Milano","restaurant,point_of_interest,food,establishment",OPERATIONAL,milan,2026-02-06T15:11:55.377680
ChIJe-zJ5MPDhkcRN4n2thh_UrI,Alice Pizza,restaurant,45.4381053,9.154364500000002,3.6,127.0,2.0,"Piazza Guglielmo Miani, 4, Milano","meal_takeaway,meal_delivery,restaurant,point_of_interest,food,establishment",OPERATIONAL,milan,2026-02-06T15:11:55.377687
ChIJrw4Q-tbDhkcRQAjxiF7CjN8,Stella Marina Famagosta,restaurant,45.4375153,9.15871,4.1,248.0,1.0,"Viale Famagosta, 31, Milano","restaurant,point_of_interest,food,establishment",OPERATIONAL,milan,2026-02-06T15:11:55.377694
ChIJ8W-1MX_DhkcRmAimW6aXooY,Excalibur ristorante pizzeria bar,restaurant,45.43579460000001,9.1597577,4.2,101.0,,"Via Ovada, 36, Milano","restaurant,point_of_interest,food,establishment",OPERATIONAL,milan,2026-02-06T15:11:55.377701
ChIJzxWGU5TDhkcRxu8CT9ucsHs,Pizzeria d'asporto Il Mago,restaurant,45.4391121,9.1553082,4.1,103.0,,"Via Modica, 1, Milano","meal_takeaway,meal_delivery,restaurant,point_of_interest,food,establishment",OPERATIONAL,milan,2026-02-06T15:11:55.377708
ChIJxx2UVJTDhkcR8bYCbt65S34,Rosticceria Amir,restaurant,45.43916849999999,9.1553377,,,,"Via Biella, 18, Milano","restaurant,point_of_interest,food,establishment",OPERATIONAL,milan,2026-02-06T15:11:55.377714
ChIJg5Z1ktXDhkcRw-DqDrU3F3A,Il Diamante2 - Ristorante Grill Pizzeria,restaurant,45.439658,9.154318399999998,4.1,1314.0,1.0,"Via Modica, 8, Milano","restaurant,point_of_interest,food,establishment",OPERATIONAL,milan,2026-02-06T15:11:55.377721
ChIJ0cyfNaHDhkcRR2HN6xVOZ9k,Ca' Pelletti Milano,restaurant,45.4365135,9.1652007,3.9,214.0,2.0,"Via San Vigilio, 1, Milano","restaurant,food,point_of_interest,establishment",OPERATIONAL,milan,2026-02-06T15:11:55.508611
ChIJs26zmovDhkcRy5sNYqwA-Us,Blue Diamond,restaurant,45.4378395,9.166788100000002,3.8,279.0,1.0,"Viale Famagosta, 75, Milano","restaurant,food,point_of_interest,establishment",OPERATIONAL,milan,2026-02-06T15:11:55.508673
ChIJGT1-2ovDhkcRBicgWp38FiE,Bowling dei fiori,restaurant,45.4351171,9.170640599999999,3.9,2722.0,,"Via Privata Renzo e Lucia, 4, Milano","bowling_alley,cafe,store,restaurant,food,point_of_interest,establishment",OPERATIONAL,milan,2026-02-06T15:11:55.652617
ChIJnwXp4ozDhkcRw1nei7YIf1c,PianoB Milano,restaurant,45.4393684,9.166398999999998,4.5,564.0,2.0,"Via Moncucco, 26, Milano","bar,restaurant,food,point_of_interest,establishment",OPERATIONAL,milan,2026-02-06T15:11:55.652666
ChIJgeppt87DhkcRJIleSWUGNbI,Bar Atlantic,restaurant,45.43701550000001,9.1675081,4.0,881.0,1.0,"Viale Famagosta, 56, Famagosta","cafe,bar,store,restaurant,food,point_of_interest,establishment",OPERATIONAL,milan,2026-02-06T15:11:55.652674
ChIJs5IsW2XDhkcR4OO78w29dyY,Nuovo Mondo Restaurant & Events,restaurant,45.4352071,9.1707901,2.4,34.0,,"Via Privata Renzo e Lucia, 4, Milano","restaurant,food,point_of_interest,establishment",OPERATIONAL,milan,2026-02-06T15:11:55.652682
ChIJtVDATYzDhkcRzu1l4xzuCZA,Osteria A livella,restaurant,45.43789489999999,9.167220499999997,,,,"Viale Famagosta, 75/scala A 2° piano, Milano","restaurant,food,point_of_interest,establishment",OPERATIONAL,milan,2026-02-06T15:11:55.652688
ChIJ_x4gSF3DhkcRN61FNkY6WZc,La Piadineria,restaurant,45.4379486,9.167178300000002,3.9,93.0,1.0,"Viale Famagosta, 75, Milano","restaurant,food,point_of_interest,establishment",OPERATIONAL,milan,2026-02-06T15:11:55.652694
ChIJM9IC8PTDhkcRvAell8mfrFI,La Cascina Moncucco,restaurant,45.4395122,9.1661747,4.3,21.0,,"Via Moncucco, 26/1, Milano","restaurant,food,point_of_interest,establishment",OPERATIONAL,milan,2026-02-06T15:11:55.652704
ChIJ6cyAEIrDhkcRyFuUJ8Lvl94,Pizzeria - Kebab San Karas,restaurant,45.4360214,9.1736541,3.8,156.0,1.0,"Via Frà Cristoforo, 1, Milano","restaurant,food,point_of_interest,establishment",OPERATIONAL,milan,2026-02-06T15:11:55.652710
ChIJlXakWXTEhkcRGCXaWRd1D-k,CIK Fried Chicken,restaurant,45.4372643,9.1784622,4.0,695.0,1.0,"Via Lodovico Montegani, 1, Milano","restaurant,point_of_interest,food,establishment",OPERATIONAL,milan,2026-02-06T15:11:55.796211
ChIJ_1lBTnTEhkcR0pq1G2E80L8,Pizza al Trancio Milano - Pizzeria Magica,restaurant,45.4369145,9.1784461,4.5,496.0,1.0,"Via Lodovico Montegani, 5, Milano","restaurant,point_of_interest,food,establishment",OPERATIONAL,milan,2026-02-06T15:11:55.796263
ChIJncAwi3XEhkcRGa-86OfV2o4,Naviglio Restaurant,restaurant,45.436602,9.175002000000001,4.2,1094.0,1.0,"Piazza Francesco Carrara, 23, Milano","meal_takeaway,restaurant,point_of_interest,food,establishment",OPERATIONAL,milan,2026-02-06T15:11:55.796276
ChIJafvRnIrDhkcRxj5dIamX1_o,Antica Osteria del Mare,restaurant,45.438308,9.175095,4.4,967.0,2.0,"Via Ascanio Sforza, 105, Milano","restaurant,point_of_interest,food,establishment",OPERATIONAL,milan,2026-02-06T15:11:55.796286
ChIJ3Zp_knXEhkcRG-ru5lrRcJg,Ristorante La Brioschina,restaurant,45.4366667,9.175555600000001,4.6,396.0,2.0,"Piazza Francesco Carrara, 21, Milano","restaurant,store,point_of_interest,food,establishment",OPERATIONAL,milan,2026-02-06T15:11:55.796296
ChIJKwsT8XXEhkcReI9pREZCGUg,Al Pulentin,restaurant,45.43629169999999,9.174947200000002,4.2,1065.0,2.0,"Via Francesco de Sanctis, 1, Milano","restaurant,point_of_interest,food,establishment",OPERATIONAL,milan,2026-02-06T15:11:55.796307
ChIJsVdG8XXEhkcRdUNcchzjDZI,Pinse E Hamburger,restaurant,45.43627170000001,9.175068199999998,,,,"Via Francesco de Sanctis, 1, Milano","restaurant,point_of_interest,food,establishment",OPERATIONAL,milan,2026-02-06T15:11:55.796315
ChIJrwIsKprFhkcRzjNI3l503Zc,IMPERATOR PIZZA-KEBAP,restaurant,45.4351153,9.1777737,4.1,136.0,,"Via Lodovico Montegani, 22, Milano","restaurant,point_of_interest,food,establishment",OPERATIONAL,milan,2026-02-06T15:11:55.796326
ChIJU7i4gnbEhkcREJjBl_ValQM,L'Isolotto,restaurant,45.4351153,9.1777737,4.5,63.0,,"Via Lodovico Montegani, 22, Milano","restaurant,point_of_interest,food,establishment",OPERATIONAL,milan,2026-02-06T15:11:55.796333
ChIJq3lHq3PEhkcRFL2xKQILW64,Kyushu,restaurant,45.4367072,9.183736099999999,4.2,247.0,1.0,"Via Volvinio, 7, Milano","restaurant,point_of_interest,food,establishment",OPERATIONAL,milan,2026-02-06T15:11:55.960206
ChIJiYQr4nLEhkcRvcbuS7dMgLw,Macelleria equina,restaurant,45.43795919999999,9.184271599999999,4.8,406.0,,"Viale Giovanni da Cermenate, 65, Milano","store,restaurant,point_of_interest,food,establishment",OPERATIONAL,milan,2026-02-06T15:11:55.960258
ChIJmQn52HTEhkcR-a8QBfn-xyI,Il Gabbiano Ristorante Pizzeria,restaurant,45.4390717,9.1786104,4.1,211.0,1.0,"Via Giuseppe Meda, 47, Milano","restaurant,point_of_interest,food,establishment",OPERATIONAL,milan,2026-02-06T15:11:55.960269
ChIJ__08NXPEhkcR70mqCEyobJk,La Gravina,restaurant,45.4395039,9.183058899999999,4.2,1368.0,2.0,"Via Giovanni Pezzotti, 46, Milano","restaurant,point_of_interest,food,establishment",OPERATIONAL,milan,2026-02-06T15:11:55.960280
ChIJ375vq3PEhkcRdZcIdNjWlpk,Aysima Turkish Kebap,restaurant,45.4369101,9.1833286,4.3,218.0,1.0,"Via Volvinio, 4, Milano","restaurant,point_of_interest,food,establishment",OPERATIONAL,milan,2026-02-06T15:11:55.960289
ChIJe2Ox6XLEhkcRTQeaGiQJ3RA,Pizzeria Al Ceppo Folle,restaurant,45.43795349999999,9.184718799999999,4.2,2045.0,1.0,"Via Sant'Ampellio, 16, Milano","restaurant,point_of_interest,food,establishment",OPERATIONAL,milan,2026-02-06T15:11:55.960310
ChIJ_3lPjXjFhkcRBddVC8D1nVg,La Pezzara di Andrea Romolo dal 1994,restaurant,45.43605059999999,9.1810485,4.8,286.0,2.0,"Via Francesco de Sanctis, 50, Milano","restaurant,point_of_interest,food,establishment",OPERATIONAL,milan,2026-02-06T15:11:55.960319
ChIJ1120jHPEhkcRhFFPnawXPFg,Glamour Caffè,restaurant,45.4362086,9.1809917,4.4,71.0,1.0,"Via Francesco de Sanctis, 47, Milano","cafe,store,bar,restaurant,point_of_interest,food,establishment",OPERATIONAL,milan,2026-02-06T15:11:55.960328
ChIJG4S87HPEhkcRuHtgkeSePiw,Bar Caffetteria Club Davide,restaurant,45.4360602,9.181432299999999,4.7,168.0,1.0,"Via Francesco de Sanctis, 50, Milano","cafe,store,bar,restaurant,point_of_interest,food,establishment",OPERATIONAL,milan,2026-02-06T15:11:55.960337
ChIJuyi8CiDFhkcR4fgEX03gEGA,Ristorante & Pizzeria Kamal,restaurant,45.4372663,9.181576,4.7,15.0,,"Viale Giovanni da Cermenate, 50, Milano","restaurant,point_of_interest,food,establishment",OPERATIONAL,milan,2026-02-06T15:11:55.960346
ChIJBZlpYmvEhkcRlxX77AWDlNo,McDonald's,restaurant,45.4369752,9.1921174,3.6,3812.0,1.0,"Via Giacomo Antonini, 28, Milano","restaurant,food,point_of_interest,establishment",OPERATIONAL,milan,2026-02-06T15:11:56.106764
ChIJR-xL3XLEhkcRYGD20dt98Lk,La Birrofila Brewpub,restaurant,45.4381226,9.184555200000002,4.3,1095.0,2.0,"Via Sant'Ampellio, 14, Milano","bar,restaurant,food,point_of_interest,establishment",OPERATIONAL,milan,2026-02-06T15:11:56.106810
ChIJKWFzE2vEhkcR6iv3DJBq2a4,Ristorante Pizzeria Malastrana,restaurant,45.4370469,9.1940067,4.2,726.0,2.0,"Via Bernardino Verro, 60, Milano","restaurant,bar,point_of_interest,food,establishment",OPERATIONAL,milan,2026-02-06T15:11:56.246855
ChIJs9J_lmrEhkcRjUPWpXJqn9I,Pizza Italia 4,restaurant,45.4370355,9.1971218,3.7,27.0,1.0,"Via Giacomo Antonini, 66, Milano","restaurant,point_of_interest,food,establishment",OPERATIONAL,milan,2026-02-06T15:11:56.246890
ChIJSXYhTJrFhkcRWc0qJiEFTFs,Starturkish2 kebap milano,restaurant,45.43704379999999,9.193422000000002,4.8,8.0,,"Via Giacomo Antonini, 36, Milano","restaurant,point_of_interest,food,establishment",OPERATIONAL,milan,2026-02-06T15:11:56.246896
ChIJY6B1HADFhkcR4ICV1XxgY2s,Turkish Pizzeria kebap fantasia,restaurant,45.43713,9.193505799999999,4.7,57.0,,"Via Giacomo Antonini, 36, Milano","restaurant,point_of_interest,food,establishment",OPERATIONAL,milan,2026-02-06T15:11:56.246901
ChIJ34IOXGvEhkcRMAhem6cjpzo,Dolly Bar Milano,restaurant,45.4378225,9.193034299999997,4.3,85.0,1.0,"Via Bernardino Verro, 48, Milano","restaurant,cafe,store,bar,point_of_interest,food,establishment",OPERATIONAL,milan,2026-02-06T15:11:56.246907
ChIJkTQcIUPFhkcRVfleqoJgoMI,Pizza italia 1,restaurant,45.4370355,9.1971218,3.0,2.0,,"Via Giacomo Antonini, 66, Milano","restaurant,point_of_interest,food,establishment",OPERATIONAL,milan,2026-02-06T15:11:56.246913
ChIJcUlmUADFhkcRVdJJF8DGjL8,pizzeria come a casa,restaurant,45.4370355,9.1971218,4.1,17.0,,"Via Giacomo Antonini, 66, Milano","restaurant,point_of_interest,food,establishment",OPERATIONAL,milan,2026-02-06T15:11:56.246918
ChIJgRTBij_EhkcRrqXuQhlVXkM,AL 130 Sweets&More,restaurant,45.438241,9.200086,4.2,247.0,2.0,"Via Giuseppe Ripamonti, 130, Milano","bakery,cafe,bar,store,restaurant,food,point_of_interest,establishment",OPERATIONAL,milan,2026-02-06T15:11:56.420511
ChIJK7242j_EhkcRykQeVEn1JOY,Bollani Milano 1930,restaurant,45.4365533,9.200329999999997,4.3,403.0,2.0,"Via Giuseppe Ripamonti, 150, Milano","bakery,bar,store,restaurant,food,point_of_interest,establishment",OPERATIONAL,milan,2026-02-06T15:11:56.420527
ChIJGU--W0DEhkcRTqCYsws__20,La Cappa,restaurant,45.4364816,9.2003985,3.9,535.0,1.0,"Via Giuseppe Ripamonti, 150, Milano","restaurant,food,point_of_interest,establishment",OPERATIONAL,milan,2026-02-06T15:11:56.420532
ChIJudibij_EhkcRUXQ2LAYn6O8,AL 130 Beer&More,restaurant,45.4382723,9.200095600000001,4.3,405.0,1.0,"Via Giuseppe Ripamonti, 130, Milano","night_club,cafe,bar,store,restaurant,food,point_of_interest,establishment",OPERATIONAL,milan,2026-02-06T15:11:56.420536
ChIJ-Yc0iz_EhkcRCjGyl9hffYs,Tao 2,restaurant,45.4383517,9.2000604,4.1,346.0,1.0,"Via Giuseppe Ripamonti, 128, Milano","restaurant,food,point_of_interest,establishment",OPERATIONAL,milan,2026-02-06T15:11:56.420540
ChIJ-V9LWkDEhkcR6VyrALm4uww,Vermar di Lupo Giuseppe F. C. Sas,restaurant,45.4365533,9.200329999999997,3.0,1.0,,"Via Giuseppe Ripamonti, 150, Milano","restaurant,food,point_of_interest,establishment",OPERATIONAL,milan,2026-02-06T15:11:56.420544
ChIJKf28ExTFhkcRV630mkG0YnQ,Il Capestrano Ristorante Abruzzese,restaurant,45.4369085,9.2019859,4.6,1089.0,3.0,"Via Gian Francesco Pizzi, 14, Milano","restaurant,food,point_of_interest,establishment",OPERATIONAL,milan,2026-02-06T15:11:56.420549
ChIJ24FZvIHFhkcRTwBk5Rpp4j8,Ristorante Pizzeria Da Gerri,restaurant,45.43792330000001,9.2001708,4.5,295.0,,"Via Giuseppe Ripamonti, 132, Milano","restaurant,food,point_of_interest,establishment",OPERATIONAL,milan,2026-02-06T15:11:56.420554
ChIJ1ZLZij_EhkcRaQlV76IBvpQ,Ristorante Cinese Tao 2,restaurant,45.4383,9.200083200000002,5.0,1.0,,"Giuseppe, Via Giuseppe Ripamonti, 128, Milano","restaurant,food,point_of_interest,establishment",OPERATIONAL,milan,2026-02-06T15:11:56.420559
ChIJGZhdqOTFhkcRlN8XnOr99oI,PepeNero,restaurant,45.43895359999999,9.199895499999998,4.5,1524.0,2.0,"Via Giuseppe Ripamonti, 118, Milano","restaurant,food,point_of_interest,establishment",OPERATIONAL,milan,2026-02-06T15:11:56.420564
ChIJL7f7_zjEhkcRr5jWH_JyWtc,Mexicali,restaurant,45.4398026,9.207640799999998,3.9,1971.0,2.0,"Viale Ortles, 62, Milano","restaurant,food,point_of_interest,establishment",OPERATIONAL,milan,2026-02-06T15:11:56.545160
ChIJge_7Lz_EhkcR1x0SdKpKRxI,Tropi&CO Pizza Club,restaurant,45.4396116,9.203734,4.2,4375.0,1.0,"Viale Ortles, 31, Milano","restaurant,food,point_of_interest,establishment",OPERATIONAL,milan,2026-02-06T15:11:56.545190
ChIJ5RajIhfFhkcRevqVwPjbYoA,Amodomio grill,restaurant,45.436394,9.20495,5.0,1.0,,"Via Bernardo Quaranta, Milano","restaurant,food,point_of_interest,establishment",CLOSED_TEMPORARILY,milan,2026-02-06T15:11:56.545201
ChIJo2NDA0jEhkcRXKmHfizDIKY,Sir Sandwich cafè,restaurant,45.437072,9.210477999999998,4.1,109.0,1.0,"Via Marco D'Agrate, 34, Milano","cafe,restaurant,food,point_of_interest,establishment",OPERATIONAL,milan,2026-02-06T15:11:56.545213
ChIJtdRTLT_EhkcR4qBo6SH0WGc,7 Luppoli Birra e Cucina,restaurant,45.43963189999999,9.204052299999999,4.2,3817.0,2.0,"Viale Ortles, 31/a, Milano","bar,restaurant,food,point_of_interest,establishment",OPERATIONAL,milan,2026-02-06T15:11:56.545227
ChIJO7Me8zXEhkcRNJNGGQc3ISY,Ristorante Contigo Peru,restaurant,45.4372207,9.2170494,3.9,567.0,1.0,"Via Bessarione, 46, Milano","restaurant,food,point_of_interest,establishment",OPERATIONAL,milan,2026-02-06T15:11:56.724215
ChIJk4qYLEjEhkcRcoyXyGU6bIs,Panini Aperitivi,restaurant,45.43680649999999,9.2125276,3.0,1.0,,"Via Marco D'Agrate, 25, Milano","restaurant,food,point_of_interest,establishment",OPERATIONAL,milan,2026-02-06T15:11:56.724244
ChIJv8yK00nEhkcR2VswVlKu-98,Ristorante Caffetteria 5 Sensi,restaurant,45.4368244,9.2129224,4.2,25.0,,"Via Marco D'Agrate, Milano","restaurant,food,point_of_interest,establishment",OPERATIONAL,milan,2026-02-06T15:11:56.724249
ChIJA9O2MQjFhkcR0eDvSSWJU1Y,Kebapçi turksse,restaurant,45.43672189999999,9.214046600000001,4.6,129.0,,"Via Marco D'Agrate, 15, Milano","restaurant,food,point_of_interest,establishment",OPERATIONAL,milan,2026-02-06T15:11:56.724253
ChIJJfNcCErEhkcRr5YMOE66rvs,Pizza in Piazza,restaurant,45.43674339999999,9.216320299999998,4.3,147.0,,"Via Marco D'Agrate, 1, Milano","meal_delivery,meal_takeaway,restaurant,food,point_of_interest,establishment",OPERATIONAL,milan,2026-02-06T15:11:56.724258
ChIJSSFg6CjFhkcR_dm8YYNbsbU,ITINERARIO GASTRONOMICO,restaurant,45.43621,9.217235900000002,5.0,32.0,,"Via San Dionigi, 8, Milano","meal_delivery,meal_takeaway,restaurant,food,point_of_interest,establishment",OPERATIONAL,milan,2026-02-06T15:11:56.724262
ChIJiXLw8jXEhkcRtgdCR6O4mwA,Pizza Italia 3,restaurant,45.43726770000001,9.2169244,3.5,24.0,,"Via Bessarione, 46, Milano","restaurant,food,point_of_interest,establishment",OPERATIONAL,milan,2026-02-06T15:11:56.724266
ChIJyXxXKvfFhkcRr1TVbmC2JHE,Rosticceria araba,restaurant,45.4372433,9.2170321,4.9,22.0,,"Via Bessarione, 46, Milano","restaurant,food,point_of_interest,establishment",OPERATIONAL,milan,2026-02-06T15:11:56.724270
ChIJ7Ypf8jXEhkcRjFEXj8HqJ9E,Ristorante Pizzeria,restaurant,45.437311,9.216991499999999,3.7,3.0,,"Via Bessarione, 46, Milano","restaurant,food,point_of_interest,establishment",OPERATIONAL,milan,2026-02-06T15:11:56.724275
ChIJ0_2ve0rEhkcRYwnQC0l2GC8,Ovesuvio Italian Pizza Restaurant,restaurant,45.43632259999999,9.2178066,3.8,292.0,,"Via Ravenna, 2, Milano","meal_delivery,restaurant,food,point_of_interest,establishment",OPERATIONAL,milan,2026-02-06T15:11:56.724279
ChIJW4Ylu5HFhkcRJxaw2W4hM_Y,Rinconcito Huaralino 2,restaurant,45.4382294,9.2164965,4.5,240.0,,"Via Bessarione, 32, Milano","restaurant,food,point_of_interest,establishment",OPERATIONAL,milan,2026-02-06T15:11:56.724283
ChIJA0xq3X3FhkcRq3yKKSC4tVo,🇰🇷 K-BAB 밥 to go!,restaurant,45.4386774,9.215951200000001,4.8,25.0,,"Via Riva di Trento, 2, Milano","restaurant,food,point_of_interest,establishment",OPERATIONAL,milan,2026-02-06T15:11:56.724287
ChIJI1ruLgDFhkcR95H37c6w8I0,Ristorante BAMYAN,restaurant,45.4384432,9.216435899999999,,,,"Via Riva di Trento, 1, Milano","restaurant,food,point_of_interest,establishment",OPERATIONAL,milan,2026-02-06T15:11:56.724291
ChIJ1xJHhTXEhkcRy3VlhOJDTms,PIZZERIA GRILL,restaurant,45.4372615,9.2179707,,,,"Via Comacchio, Milano","restaurant,food,point_of_interest,establishment",OPERATIONAL,milan,2026-02-06T15:11:56.724295
ChIJATKsnDXEhkcRdeoGxQHtPz4,Ristorante e Pizzeria Glory Milano,restaurant,45.4372739,9.217976600000002,4.2,371.0,2.0,"Via Comacchio, 1, Milano","restaurant,food,point_of_interest,establishment",OPERATIONAL,milan,2026-02-06T15:11:56.724299
ChIJOzxep5fBhkcRMjiEjIxvCCg,Samarkand Ristorante,restaurant,45.4389165,9.216152899999999,4.4,537.0,,"Via Bessarione, Milano","restaurant,food,point_of_interest,establishment",OPERATIONAL,milan,2026-02-06T15:11:56.724303
ChIJ2YZShzbEhkcRlq7g5pO81Hk,Antica Forneria,restaurant,45.4392872,9.2159853,,,,"Via Bessarione, 18, Milano","restaurant,food,point_of_interest,establishment",OPERATIONAL,milan,2026-02-06T15:11:56.724307
ChIJBTHrmrXFhkcRZlsFyTIMA3g,Pizza Padre Pio 2,restaurant,45.4355809,9.224786,3.5,61.0,,"Via Augusto Osimo, 1, Milano","restaurant,food,point_of_interest,establishment",OPERATIONAL,milan,2026-02-06T15:11:57.387944
ChIJlYFEaTXEhkcRdbXupc8KyuA,L' Italy,restaurant,45.43741169999999,9.2198215,,,,"Piazzale Ferrara, Milano","restaurant,food,point_of_interest,establishment",OPERATIONAL,milan,2026-02-06T15:11:57.387967
ChIJsRsmajXEhkcRXAY9vTUo_hE,La tua Polleria,restaurant,45.4374583,9.2199982,,,,Italy,"restaurant,food,point_of_interest,establishment",OPERATIONAL,milan,2026-02-06T15:11:57.387972
ChIJyaYZLhPFhkcRYNJy3ffJnnI,Ristorante Babylon,restaurant,45.4384314,9.2203803,4.7,229.0,,"Via Polesine, 5, Milano","restaurant,food,point_of_interest,establishment",OPERATIONAL,milan,2026-02-06T15:11:57.387978
ChIJgWipGsvFhkcRuMZXalPD9KQ,ViVà,restaurant,45.4389911,9.224521200000002,4.1,1952.0,1.0,"Viale Enrico Martini, 9, Milano","meal_takeaway,restaurant,food,point_of_interest,establishment",OPERATIONAL,milan,2026-02-06T15:11:57.530971
ChIJfwStHsjFhkcRabfyYzcIHdY,Tamoil,restaurant,45.4359754,9.231607499999999,3.8,201.0,,"Via Giovanni Battista Cassinis, 16, Milano","gas_station,pharmacy,bar,health,store,restaurant,food,point_of_interest,establishment",OPERATIONAL,milan,2026-02-06T15:11:57.531006
ChIJ85xPp8vFhkcRrq6hPLBCheU,Pizzeria del Sole,restaurant,45.4391487,9.2252477,4.3,1949.0,1.0,"Via Carlo Marochetti, 10, Milano","restaurant,food,point_of_interest,establishment",OPERATIONAL,milan,2026-02-06T15:11:57.531017
ChIJYZGQCMvFhkcRsGtIqzRfoLg,Demus,restaurant,45.43812399999999,9.224577600000002,4.1,864.0,1.0,"Viale Enrico Martini, 15, Milano","restaurant,food,point_of_interest,establishment",OPERATIONAL,milan,2026-02-06T15:11:57.531028
ChIJk44XUibFhkcRjEFPOmXixmU,Luna Bar Pub - Ecuador,restaurant,45.4380976,9.224780299999997,4.0,1.0,,"Piazzale Gabriele Rosa, 16, Milano","restaurant,food,point_of_interest,establishment",OPERATIONAL,milan,2026-02-06T15:11:57.531036
ChIJnzUcScjFhkcRRdEatWEKBe0,La Plancia,restaurant,45.4371229,9.230673200000002,4.3,1099.0,2.0,"Via Giovanni Battista Cassinis, 13, Milano","restaurant,food,point_of_interest,establishment",OPERATIONAL,milan,2026-02-06T15:11:57.531045
ChIJsZTH0cvFhkcR7N6J5FsqyFA,Commissary Select,restaurant,45.4381836,9.2283127,3.2,30.0,,"Via Carlo Marochetti, 27, Milano","restaurant,food,point_of_interest,establishment",OPERATIONAL,milan,2026-02-06T15:11:57.531053
ChIJQ35uFxLFhkcR7HI3Io7Uxo4,South Garage Bistrot,restaurant,45.438107,9.2290821,4.5,333.0,2.0,"Via Privata Eugenio Brizi, 2, Milano","restaurant,food,point_of_interest,establishment",OPERATIONAL,milan,2026-02-06T15:11:57.531062
ChIJX0pNbcHFhkcRpANKmx9J_ws,BBQ-1 Filipino Style BBQ & Cuisine,restaurant,45.43906370000001,9.224784999999999,4.5,237.0,,"Viale Enrico Martini, 9, Milano","restaurant,food,point_of_interest,establishment",OPERATIONAL,milan,2026-02-06T15:11:57.531069
ChIJxzNck0rFhkcRgM_Ek4wcJ-4,Al Chiosco DA GIACOMO BIRRE ARTIGIANALI,restaurant,45.4395403,9.223996099999997,4.9,89.0,,"P.le Luigi E. Corvetto.4C02, Milano","bar,restaurant,food,point_of_interest,establishment",OPERATIONAL,milan,2026-02-06T15:11:57.531077
ChIJaeIbsVvFhkcRsjT8bxRFM08,Hekaya,restaurant,45.4397014,9.2252204,4.3,13.0,,"Via Carlo Marochetti, 3, Milano","restaurant,food,point_of_interest,establishment",OPERATIONAL,milan,2026-02-06T15:11:57.531086
ChIJz0g5LcvFhkcRe1FS898OFuI,Bar Paninoteca Twin Peaks,restaurant,45.43903,9.222066999999997,5.0,7.0,,"Via Polesine, 2520139, Milano","restaurant,food,point_of_interest,establishment",CLOSED_TEMPORARILY,milan,2026-02-06T15:11:57.531094
ChIJpafodMvFhkcRQJIQELNj52s,Mevlana Turkish Kebap Pizza Halal,restaurant,45.4397883,9.224960399999997,3.9,252.0,,"Via Carlo Marochetti, 1, Milano","restaurant,food,point_of_interest,establishment",OPERATIONAL,milan,2026-02-06T15:11:57.531102
ChIJgRjX12_FhkcRsaTbaNDVFz8,Due Amici,restaurant,45.43896050000001,9.2216016,3.7,46.0,,"Via Polesine, 21, Milano","restaurant,food,point_of_interest,establishment",OPERATIONAL,milan,2026-02-06T15:11:57.531111
ChIJqwWj9MfFhkcRWD5U_1hcffk,Ristorante All American Diner,restaurant,45.4357861,9.2339194,4.2,3448.0,2.0,"Via Giovanni Battista Cassinis, 33, Milano","bar,restaurant,food,point_of_interest,establishment",OPERATIONAL,milan,2026-02-06T15:11:57.678840
ChIJUSUUt8fFhkcRIPRwraICX9U,L'Artista del Gusto,restaurant,45.4372711,9.235026399999997,4.3,1016.0,2.0,"Via Vincenzo Toffetti, 18, Milano","restaurant,food,point_of_interest,establishment",OPERATIONAL,milan,2026-02-06T15:11:57.678900
ChIJFXqensfFhkcRsfZXbbEdE3w,L`Agristorante,restaurant,45.4361801,9.235388700000001,4.4,716.0,1.0,"Via Carlo Boncompagni, 94, Milano","restaurant,food,point_of_interest,establishment",OPERATIONAL,milan,2026-02-06T15:11:57.678912
ChIJ-56Gv8DFhkcRybmWBU5gL3U,Santa Giulia Pizzeria Con Cucina...,restaurant,45.4360971,9.239914299999999,4.1,202.0,2.0,"Via Francesco Pizzolpasso, 1, Milano","restaurant,food,point_of_interest,establishment",OPERATIONAL,milan,2026-02-06T15:11:57.838820
ChIJVVbrubTFhkcRjJ8PEpcF9Ro,So' Garden Cafè,restaurant,45.4357644,9.2406282,4.2,328.0,,"Via Bruno Cassinari, 2, Milano","bar,liquor_store,store,restaurant,food,point_of_interest,establishment",OPERATIONAL,milan,2026-02-06T15:11:57.838874
ChIJa6tiVMDFhkcRlrlw87bs7-k,Kimos,restaurant,45.436186,9.240737,3.9,322.0,1.0,"Via Bruno Cassinari, 3, Milano","meal_takeaway,meal_delivery,restaurant,food,point_of_interest,establishment",OPERATIONAL,milan,2026-02-06T15:11:57.838896
ChIJd7A0z8HFhkcR_Qi96JE6lzg,Pizzeria Acqua Farina e Sale,restaurant,45.4375571,9.243525300000002,4.0,283.0,1.0,"Via Bruno Cassinari, 26, Milano","restaurant,food,point_of_interest,establishment",OPERATIONAL,milan,2026-02-06T15:11:57.838923
ChIJbbNzv8HFhkcR4M7A0GIHgxM,Nuova Milano,restaurant,45.4380433,9.2435345,4.4,680.0,2.0,"Via Bruno Cassinari, 25/27, Milano","bar,restaurant,food,point_of_interest,establishment",OPERATIONAL,milan,2026-02-06T15:11:57.838932
ChIJ1TskvXzphkcRWCCKlJnnaIo,Oasi lago dei Cigni,restaurant,45.4397312,9.067609500000001,3.9,901.0,2.0,"Via Guascona, 60, Milano","restaurant,food,point_of_interest,establishment",OPERATIONAL,milan,2026-02-06T15:11:58.293276
ChIJE7UNFkrChkcR3ZbvUqnPt6s,Ristorante Ruben,restaurant,45.4421908,9.121750400000002,4.7,165.0,,"Via Francesco Gonin, 52, Milano","restaurant,food,point_of_interest,establishment",OPERATIONAL,milan,2026-02-06T15:11:58.994696
ChIJW47sl7XDhkcRXCSFo9BiWO8,Lungo la Notte Ristorante,restaurant,45.44253459999999,9.134148,4.6,402.0,2.0,"Via Lodovico Il Moro, 131, Milano","restaurant,food,point_of_interest,establishment",OPERATIONAL,milan,2026-02-06T15:11:59.122312
ChIJB3XoCbXDhkcRUQUkXCRuD3M,IL MIO - pizza & restaurant,restaurant,45.441949,9.1329583,4.4,602.0,2.0,"Via Lodovico Il Moro, 137, Milano","restaurant,food,point_of_interest,establishment",OPERATIONAL,milan,2026-02-06T15:11:59.122368
ChIJa6nLCLXDhkcR4zfQxsBENoc,Osteria Naviglio Grande,restaurant,45.4418932,9.1324503,4.6,570.0,2.0,"Via Lodovico Il Moro, 139, Milano","restaurant,food,point_of_interest,establishment",OPERATIONAL,milan,2026-02-06T15:11:59.122379
ChIJE-iVgBbDhkcRJV4gFWGcEMc,GRAND LOVE MILANO,restaurant,45.44198919999999,9.1327051,4.8,42.0,,"Via Lodovico Il Moro, 139, Milano","restaurant,food,point_of_interest,establishment",OPERATIONAL,milan,2026-02-06T15:11:59.122389
ChIJSR6vCbXDhkcRqc8bg8wSTL8,Mic Pizza & Restaurant,restaurant,45.4419977,9.132731600000001,5.0,2.0,,"Via Lodovico Il Moro, 137, Milano","restaurant,food,point_of_interest,establishment",OPERATIONAL,milan,2026-02-06T15:11:59.122399
ChIJMQBHvUrChkcRmpb3F5PUe5w,Ristorante D'Karbon&Limon2,restaurant,45.4432599,9.1290101,3.9,850.0,2.0,"Piazza Tirana, 22, Milano","restaurant,food,point_of_interest,establishment",OPERATIONAL,milan,2026-02-06T15:11:59.122408
ChIJ8xEdfkrChkcR5bWaziO8M9I,Sfrigola,restaurant,45.4437579,9.1276301,4.7,245.0,,"Via Francesco Gonin, 9, Milano","restaurant,store,food,point_of_interest,establishment",OPERATIONAL,milan,2026-02-06T15:11:59.122416
ChIJ8dFdy0HDhkcRsH0EvGJ4W64,Al Bocconcino Ristorante Pizzeria,restaurant,45.4438262,9.1278366,4.6,251.0,1.0,"Via Francesco Gonin, 7, Milano","restaurant,food,point_of_interest,establishment",OPERATIONAL,milan,2026-02-06T15:11:59.122425
ChIJ03sWycnDhkcRcCxdWgZBawg,Entrèe,restaurant,45.4424476,9.133997899999999,4.7,385.0,2.0,"Via Lodovico Il Moro, 133, Milano","restaurant,food,point_of_interest,establishment",OPERATIONAL,milan,2026-02-06T15:11:59.122434
ChIJITN1bJHDhkcRUxHEsXNp3T0,Ristorante Il Borgo Ferrera | Specialità Toscane| Aperitivi Toscani,restaurant,45.4420082,9.134778100000002,4.3,329.0,2.0,"Via della Ferrera, 8, Milano","restaurant,food,point_of_interest,establishment",OPERATIONAL,milan,2026-02-06T15:11:59.122442
ChIJpdm-VADDhkcR1AoFK3cxft4,TIRANA&M&K TURKİSH KEBAP PIZZA GRILL,restaurant,45.4444757,9.130031100000002,4.3,34.0,,"Piazza Tirana, 5, Milano","restaurant,food,point_of_interest,establishment",OPERATIONAL,milan,2026-02-06T15:11:59.122450
ChIJGVR8lLfDhkcRUtVz_WQ4pKk,Tre Anelli,restaurant,45.4417961,9.1401138,4.3,302.0,1.0,"Via Privata Parenzo, 6, Milano","restaurant,food,point_of_interest,establishment",OPERATIONAL,milan,2026-02-06T15:11:59.427858
ChIJxWSwvl3DhkcRNhrgteGGBQw,El Diablo Tun Tun,restaurant,45.442073,9.141128400000001,4.2,356.0,2.0,"Via Privata Parenzo, 7, Milano","restaurant,food,point_of_interest,establishment",OPERATIONAL,milan,2026-02-06T15:11:59.427890
ChIJq1eGj7fDhkcRYwtb7Ny2R1k,Spazio Epoca Milano,restaurant,45.4420359,9.140944400000002,4.3,605.0,,"Via Privata Parenzo, 7, Milano","bar,restaurant,food,point_of_interest,establishment",OPERATIONAL,milan,2026-02-06T15:11:59.427901
ChIJmRrqlLfDhkcRkvXN7qoQIKM,Bis Pizzeria di Buttacavoli,restaurant,45.4418458,9.1401204,4.6,170.0,1.0,"Via Privata Parenzo, 6, Milano","restaurant,food,point_of_interest,establishment",OPERATIONAL,milan,2026-02-06T15:11:59.427907
ChIJT58MvS7DhkcR_iKtj3Q8vxQ,Ca’ Bianca Restaurant & Events,restaurant,45.44367099999999,9.1373779,3.8,211.0,,"Via Lodovico Il Moro, 117, Milano","restaurant,food,point_of_interest,establishment",OPERATIONAL,milan,2026-02-06T15:11:59.427918
ChIJhRGz8grDhkcRX3S46SC_RJE,MIMA CAFE' MILANO,restaurant,45.44323659999999,9.139268099999999,4.6,26.0,,"Piazzale Luigi Negrelli, 4, Milano","convenience_store,cafe,bar,bakery,restaurant,food,store,point_of_interest,establishment",OPERATIONAL,milan,2026-02-06T15:11:59.427923
ChIJbavYek7DhkcR6jbvmhi7ST0,ristorante 3 anelli,restaurant,45.44363329999999,9.1390335,,,,"Piazzale Luigi Negrelli, Milano","restaurant,food,point_of_interest,establishment",OPERATIONAL,milan,2026-02-06T15:11:59.427932
ChIJ865Z17jDhkcReMu8jz_CKIQ,Ittolittos,restaurant,45.44040079999999,9.1461743,4.5,866.0,2.0,"Via Francesco Olgiati, 25, Milano","bar,restaurant,food,point_of_interest,establishment",OPERATIONAL,milan,2026-02-06T15:11:59.574956
ChIJSXgrf7jDhkcR-vfWPLn6lFg,Tramezzino.it Milano,restaurant,45.4421005,9.143539399999998,4.1,53.0,,"Via Guglielmo Guintellino, 26, Milano","restaurant,food,point_of_interest,establishment",OPERATIONAL,milan,2026-02-06T15:11:59.574990
ChIJkTY4QcjDhkcRz3HYU-wN5N8,Osteria Ma.Si,restaurant,45.44436950000001,9.1406689,4.2,686.0,2.0,"Via Lodovico Il Moro, 93, Milano","restaurant,food,point_of_interest,establishment",OPERATIONAL,milan,2026-02-06T15:11:59.575005
ChIJd957u7_DhkcR1Q3BotKit1g,Sirio Ploom reseller,restaurant,45.4405306,9.151037999999998,4.1,129.0,2.0,"Via Santa Rita da Cascia, 23, Milano","bar,restaurant,food,point_of_interest,establishment",OPERATIONAL,milan,2026-02-06T15:11:59.723927
ChIJ5zSe7L_DhkcRBALk1JYmKls,Ristorante Pizzeria Lo Smeraldo,restaurant,45.44111410000001,9.151719600000002,4.2,2222.0,2.0,"Via Ettore Ponti, 53, Milano","restaurant,food,point_of_interest,establishment",OPERATIONAL,milan,2026-02-06T15:11:59.723965
ChIJXcglM77DhkcRuRv3hrS2lng,Caffetteria Santa Rita,restaurant,45.4398281,9.1512757,4.5,21.0,,"Via Bari, 2, Milano","restaurant,food,point_of_interest,establishment",OPERATIONAL,milan,2026-02-06T15:11:59.723978
ChIJ_ayjM2DDhkcRpy1D2r5_6nE,Barz'8,restaurant,45.44141809999999,9.151387999999997,4.5,30.0,,"Via Ettore Ponti, 58, Milano","bar,restaurant,food,point_of_interest,establishment",OPERATIONAL,milan,2026-02-06T15:11:59.723988
ChIJj7IZpsDDhkcR_dqarjEnjII,Bella Vista Istanbul 2 Döner Kebap-Pizza,restaurant,45.4425752,9.148367799999997,4.2,116.0,1.0,"Via Santa Rita da Cascia, 3, Milano","restaurant,food,point_of_interest,establishment",OPERATIONAL,milan,2026-02-06T15:11:59.723999
ChIJKUHorsDDhkcRjz3FGVx4jAw,Pizzeria-Trattoria San Marco,restaurant,45.4426735,9.1484078,3.6,67.0,1.0,"Piazza Giorgio Simone Ohm, 1/A, Milano","restaurant,food,point_of_interest,establishment",OPERATIONAL,milan,2026-02-06T15:11:59.724008
ChIJ20tyDf3DhkcRI5OHGitkZnU,Bontà senza Glutine,restaurant,45.44103550000001,9.152202899999999,4.5,91.0,,"Via Ettore Ponti, 53, Milano","cafe,bakery,restaurant,food,store,point_of_interest,establishment",OPERATIONAL,milan,2026-02-06T15:11:59.724028
ChIJKRLv9kbDhkcRfSTKxgtWT64,Alegre Milano,restaurant,45.44407119999999,9.150502099999999,4.8,59.0,,"Via Giacomo Watt, 32, Milano","restaurant,food,point_of_interest,establishment",OPERATIONAL,milan,2026-02-06T15:11:59.724038
ChIJ61h025TDhkcRz4E9FM1qWAc,Pizzeria Tutti I Gusti,restaurant,45.4408371,9.156262,4.1,206.0,1.0,"Via Bonaventura Zumbini, 36, Milano","restaurant,food,point_of_interest,establishment",OPERATIONAL,milan,2026-02-06T15:11:59.871353
ChIJGfKRy-rDhkcRoZNkQ5I_6EI,Chen sushi,restaurant,45.441906,9.1549892,3.8,195.0,1.0,"Via Ambrogio Binda, 25, Milano","restaurant,food,point_of_interest,establishment",OPERATIONAL,milan,2026-02-06T15:11:59.871368
ChIJnbp9yurDhkcRnTeQ0-TAU_I,Da lì a là,restaurant,45.44195209999999,9.154678499999997,4.4,115.0,1.0,"Via Ettore Ponti, 35, Milano","bar,bakery,restaurant,food,store,point_of_interest,establishment",OPERATIONAL,milan,2026-02-06T15:11:59.871373
ChIJ1aT7hurDhkcRv0pyP7XoqQ8,10 Degrees North Milan,restaurant,45.4441857,9.154580600000001,4.5,591.0,2.0,"in fondo al cortile a sinistra, Via Giacomo Watt 5/1 Entra nel cancello da, Via Giacomo Watt, 5, Milano","bar,restaurant,food,point_of_interest,establishment",OPERATIONAL,milan,2026-02-06T15:11:59.871377
ChIJ7SLBGJXDhkcRl9tKQhgMhrM,Ristorante Carmen 2,restaurant,45.4405937,9.155151300000002,4.2,731.0,1.0,"Via Bonaventura Zumbini, 46, Milano","restaurant,food,point_of_interest,establishment",OPERATIONAL,milan,2026-02-06T15:11:59.871381
ChIJjTNpsw7DhkcR3QmHHS7Ri1s,Donburi House 丼 Zumbini - Ramen Izakaya,restaurant,45.44043910000001,9.155703,4.6,225.0,,"Via Bonaventura Zumbini, 39, Milano","restaurant,food,point_of_interest,establishment",OPERATIONAL,milan,2026-02-06T15:11:59.871384
ChIJR2PYUdPDhkcRUvHlYR4vrhQ,Feat.Barona,restaurant,45.44043910000001,9.155703,4.7,96.0,,"Via Bonaventura Zumbini, 39, Milano","bar,restaurant,food,point_of_interest,establishment",OPERATIONAL,milan,2026-02-06T15:11:59.871387
ChIJzdp9QAHEhkcRE9KEnqg49UU,Altatto,restaurant,45.4405436,9.1559555,4.7,375.0,,"Via Bonaventura Zumbini, 39, Milano","restaurant,food,point_of_interest,establishment",OPERATIONAL,milan,2026-02-06T15:11:59.871390
ChIJwV3ryurDhkcRYQHiSsVmA-Q,Istanbul Turkish Kebab Milano,restaurant,45.44189559999999,9.154752,4.5,269.0,1.0,"Via Ambrogio Binda, 28, Milano","restaurant,food,point_of_interest,establishment",OPERATIONAL,milan,2026-02-06T15:11:59.871394
ChIJGXHDtTDDhkcRUgjSh1i8nyY,Sushichen Di OuYang,restaurant,45.4419146,9.155068499999999,4.6,7.0,,"Via Ambrogio Binda, 25, Milano","restaurant,food,point_of_interest,establishment",OPERATIONAL,milan,2026-02-06T15:11:59.871396
ChIJG-QryurDhkcRhXHrXsQBajw,Gocce Di Caffè,restaurant,45.4420843,9.1550564,4.2,33.0,,"Via Ambrogio Binda, 25, Milano","cafe,bar,restaurant,food,store,point_of_interest,establishment",OPERATIONAL,milan,2026-02-06T15:11:59.871400
ChIJJ03Ff6jDhkcRItYhSovV1do,VIVA | BuonoFrescoNaturale - Romolo,restaurant,45.44224870000001,9.161614,4.0,81.0,,"Via Ernesto Calindri, 6, Milano","bar,restaurant,food,point_of_interest,establishment",OPERATIONAL,milan,2026-02-06T15:12:00.006203
ChIJ4w3qhJTDhkcRGmJU9b04beQ,Ristorante Pizzeria Papavero,restaurant,45.4397837,9.157958200000001,3.7,337.0,1.0,"Via Felice Venosta, 21, Milano","restaurant,food,point_of_interest,establishment",CLOSED_TEMPORARILY,milan,2026-02-06T15:12:00.006221
ChIJl8rMjWrDhkcRTPNhcMecz6g,Ribalta Barona,restaurant,45.4413712,9.1580617,4.4,541.0,2.0,"Via Bonaventura Zumbini, 6, Milano","bar,restaurant,food,point_of_interest,establishment",OPERATIONAL,milan,2026-02-06T15:12:00.006227
ChIJxwB5f9fDhkcREI82QA8ACA0,People Eat Milano,restaurant,45.4428694,9.1623165,5.0,16.0,,"Via Ernesto Calindri, 4, Milano","restaurant,food,point_of_interest,establishment",OPERATIONAL,milan,2026-02-06T15:12:00.006232
ChIJTX2DkVHDhkcREfJcrCgT108,La Piadineria,restaurant,45.4429941,9.1626309,2.9,152.0,1.0,"Via Ernesto Calindri, Milano","restaurant,food,point_of_interest,establishment",OPERATIONAL,milan,2026-02-06T15:12:00.006236
ChIJoWb1zQjDhkcRLTXfkEmXzb4,Poke House - The Sign,restaurant,45.443317,9.163215,4.5,264.0,2.0,"Via Ernesto Calindri, 2, Milano","meal_takeaway,restaurant,food,point_of_interest,establishment",OPERATIONAL,milan,2026-02-06T15:12:00.006242
ChIJea21XtjDhkcRHyvPgyqg3_k,Mensa IULM 3,restaurant,45.44298169999999,9.165076699999998,,,,"Via Carlo Bo, 1, Milano","restaurant,food,point_of_interest,establishment",OPERATIONAL,milan,2026-02-06T15:12:00.006247
ChIJTwiw4o7DhkcRWGFyhOBqeeA,Bar Atlantic,restaurant,45.4442088,9.162942,3.8,77.0,,"Viale Cassala, 22, Milano","cafe,bar,store,restaurant,food,point_of_interest,establishment",OPERATIONAL,milan,2026-02-06T15:12:00.006253
ChIJqewwXTMuVUARPmGdyYi3CUA,Caterina cucina e farina,restaurant,45.4421192,9.172377899999999,4.2,1105.0,2.0,"Via Imperia, 20, Milano","restaurant,food,point_of_interest,establishment",OPERATIONAL,milan,2026-02-06T15:12:00.141775
ChIJa1XH7fTDhkcREZfwCgu-9ts,Trattoria Moderna & Pizza,restaurant,45.44201200000001,9.172434299999999,4.5,10.0,,"Via Spezia, 12, Milano","restaurant,food,point_of_interest,establishment",OPERATIONAL,milan,2026-02-06T15:12:00.141834
ChIJVVXF9PTDhkcRGgL_tC0qOSo,"Biscottino ""officina dei sapori""",restaurant,45.4426043,9.172385,4.5,227.0,1.0,"Via Spezia, 2, Milano","restaurant,food,point_of_interest,establishment",OPERATIONAL,milan,2026-02-06T15:12:00.141846
ChIJ-6l-QPLDhkcR1i6TO6_vJxg,Pizzeria Romolo,restaurant,45.4443257,9.1671832,4.6,8.0,,"Viale Romolo, 1, Milano","restaurant,food,point_of_interest,establishment",OPERATIONAL,milan,2026-02-06T15:12:00.141856
ChIJq3GxSvLDhkcRbEiItkgEV2o,Turkish Kebap,restaurant,45.4443257,9.1671832,3.7,105.0,,"Viale Romolo, 1, Milano","restaurant,food,point_of_interest,establishment",OPERATIONAL,milan,2026-02-06T15:12:00.141866
ChIJa-GhP_LDhkcRlk2c2c94Tr4,Pizzeria Kebabo d'asporto,restaurant,45.4444541,9.167258,4.1,19.0,,"Viale Romolo, 3, Milano","meal_takeaway,restaurant,food,point_of_interest,establishment",OPERATIONAL,milan,2026-02-06T15:12:00.141875
ChIJUzBorEPDhkcRakJn3HLi2RY,Drinkiamo Bistrot,restaurant,45.4417716,9.1736405,4.5,178.0,2.0,"Via Imperia, 13, Milano","restaurant,food,point_of_interest,establishment",OPERATIONAL,milan,2026-02-06T15:12:00.141884
ChIJRRbmEPXDhkcRLbMkKsuDwpE,Le Tournedos,restaurant,45.4417442,9.17457,4.4,1155.0,2.0,"Via Imperia, 7, Milano","restaurant,food,point_of_interest,establishment",OPERATIONAL,milan,2026-02-06T15:12:00.292333
ChIJsZ1dePXDhkcRGZMwQDZGJ0Q,Osteria Grand Hotel,restaurant,45.442272,9.1770827,4.3,472.0,2.0,"Via Ascanio Sforza, 75, Milano","restaurant,food,point_of_interest,establishment",OPERATIONAL,milan,2026-02-06T15:12:00.292388
ChIJxT2K1grEhkcRSeW3n77PG5U,Tutta 'Nata Storia,restaurant,45.44034140000001,9.178690199999998,4.4,777.0,2.0,"Via Giuseppe Meda, 43, Milano","meal_delivery,meal_takeaway,restaurant,food,point_of_interest,establishment",OPERATIONAL,milan,2026-02-06T15:12:00.292398
ChIJH5NcgvXDhkcRao2Ld1qXB9k,Ristorante Fuku jima,restaurant,45.4424662,9.176055999999999,4.2,1120.0,2.0,"Via Ascanio Sforza, 73, Milano","restaurant,food,point_of_interest,establishment",OPERATIONAL,milan,2026-02-06T15:12:00.292407
ChIJJaTnxArEhkcRkTEsY4-Q5lU,FuoriFusto Birrosteria Milano,restaurant,45.4407236,9.1781551,4.6,616.0,2.0,"Via Silvio Spaventa, 19, Milano","bar,restaurant,food,point_of_interest,establishment",OPERATIONAL,milan,2026-02-06T15:12:00.292418
ChIJC-mOdArEhkcRiMVts0tWUWA,D' karbon & limon,restaurant,45.44336759999999,9.1773016,3.9,612.0,,"Viale Tibaldi, 10, Milano","restaurant,food,point_of_interest,establishment",OPERATIONAL,milan,2026-02-06T15:12:00.292426
ChIJmTA0evXDhkcR3dHusxporg0,INCONTRI by SADLER,restaurant,45.44213,9.175977,4.6,471.0,3.0,"Via Cardinale, Via Ascanio Sforza, 77, Milano","restaurant,food,point_of_interest,establishment",OPERATIONAL,milan,2026-02-06T15:12:00.292438
ChIJyzVOq2zDhkcRsXN5XzzKPPU,Nagasaki Sushi & Poke,restaurant,45.4403352,9.1750341,4.8,172.0,,"Alzaia Naviglio Pavese, 106, Milano","meal_takeaway,restaurant,food,point_of_interest,establishment",OPERATIONAL,milan,2026-02-06T15:12:00.292451
ChIJjW4EDQDDhkcRij1v5L4UTZc,Fouri Fusto,restaurant,45.4400854,9.1756612,,,,"Via Ascanio Sforza, 91, Milano","restaurant,food,point_of_interest,establishment",OPERATIONAL,milan,2026-02-06T15:12:00.292459
ChIJLyGd2iDFhkcRKl892yaSUYw,NN Sri Lankan Fusion Restaurant,restaurant,45.4407644,9.1757185,4.9,55.0,,"Via Silvio Spaventa, 1, Milano","restaurant,food,point_of_interest,establishment",OPERATIONAL,milan,2026-02-06T15:12:00.292468
ChIJWeJJMobDhkcRPa1y-qpQpp8,CASAMARRO',restaurant,45.4415173,9.173897100000001,4.5,126.0,,"Via Bordighera, 17, Milano","restaurant,bakery,cafe,store,food,point_of_interest,establishment",OPERATIONAL,milan,2026-02-06T15:12:00.292476
ChIJb2CbdtDFhkcRX6U1NikPNLM,Llama Maki,restaurant,45.44075050000001,9.176112300000002,4.6,428.0,,"Via Silvio Spaventa, 1, Milano","restaurant,food,point_of_interest,establishment",OPERATIONAL,milan,2026-02-06T15:12:00.292485
ChIJf1_HHPXDhkcReZxpeaM3xF8,Pizzeria Il Padellino,restaurant,45.4415927,9.1738988,4.3,22.0,1.0,"Via Bordighera, 11, Milano","meal_takeaway,restaurant,food,point_of_interest,establishment",CLOSED_TEMPORARILY,milan,2026-02-06T15:12:00.292494
ChIJgaG4zAvEhkcRJotoJTxfy7g,Sole d'Oriente Restaurant,restaurant,45.44371849999999,9.180026699999999,4.3,521.0,2.0,"Viale Tibaldi, 17, Milano","restaurant,food,point_of_interest,establishment",OPERATIONAL,milan,2026-02-06T15:12:00.433870
ChIJwZiY6gvEhkcRcDzRWiBlui0,"Trattoria ""Amici Miei - Atto II""",restaurant,45.44315890000001,9.181490300000002,3.8,972.0,2.0,"Via Francesco Brioschi, 41, Milano","restaurant,food,point_of_interest,establishment",OPERATIONAL,milan,2026-02-06T15:12:00.433905
ChIJ94xE6AvEhkcRw9cfwYNOI6A,Sushi Kasai,restaurant,45.4436674,9.1816509,4.3,706.0,1.0,"Viale Tibaldi, 40, Milano","restaurant,food,point_of_interest,establishment",OPERATIONAL,milan,2026-02-06T15:12:00.433916
ChIJ8yqFrwnEhkcRcrIphZ-4O5M,Pizza Vuoi,restaurant,45.4437516,9.1798606,4.3,78.0,,"Viale Tibaldi, 17, Milano","meal_delivery,meal_takeaway,restaurant,food,point_of_interest,establishment",OPERATIONAL,milan,2026-02-06T15:12:00.433927
ChIJow5Xs3LEhkcRRK2q_JOZMtw,Al Parco Verde,restaurant,45.4406093,9.1861337,4.5,31.0,,"Via Giovanni Battista Boeri, 11, Milano","restaurant,food,point_of_interest,establishment",OPERATIONAL,milan,2026-02-06T15:12:00.433936
ChIJ38A6bP3FhkcRZhxmxFpZuRU,Altro,restaurant,45.44105829999999,9.181478700000001,4.7,141.0,,"Via Francesco Brioschi, 68, Milano","restaurant,food,point_of_interest,establishment",OPERATIONAL,milan,2026-02-06T15:12:00.433945
ChIJ60yDchPEhkcR4DSyK79Q5as,MiHotel,restaurant,45.4405621,9.1921165,3.9,252.0,,"Via dei Fontanili, 26, Milano","lodging,restaurant,point_of_interest,food,spa,establishment",CLOSED_TEMPORARILY,milan,2026-02-06T15:12:01.090424
ChIJLR1v-BLEhkcRRhTgyu3yhyY,Dawali,restaurant,45.4412289,9.190252899999999,4.4,1531.0,2.0,"Via Corrado II il Salico, 10, Milano","restaurant,point_of_interest,food,establishment",OPERATIONAL,milan,2026-02-06T15:12:01.090460
ChIJV3HlgA3EhkcRFUXcvzJ3cyY,El Jadida Milano,restaurant,45.44189069999999,9.188133199999998,4.0,1194.0,2.0,"Via Carlo Bazzi, 47, Milano","restaurant,night_club,bar,point_of_interest,food,establishment",OPERATIONAL,milan,2026-02-06T15:12:01.090471
ChIJQ0tacRLEhkcRxK74XKsXstk,Ristorante L'Anima Del Gusto,restaurant,45.44229079999999,9.188598899999999,4.4,138.0,,"Via dei Fontanili, Via Bernardino Verro, 2, Milano","restaurant,point_of_interest,food,establishment",OPERATIONAL,milan,2026-02-06T15:12:01.090480
ChIJcUx8v0_FhkcRb2EYut_pZ28,Migasa Sushi e Cucina,restaurant,45.4411393,9.1892441,4.4,122.0,,"Via Bernardino Verro, 15, Milano","restaurant,point_of_interest,food,establishment",OPERATIONAL,milan,2026-02-06T15:12:01.090510
ChIJt1gSig3EhkcR18OrB2LYv6I,LOFT pizza e grill,restaurant,45.442192,9.1882486,3.9,675.0,2.0,"Via Bernardino Verro, 2, Milano","restaurant,night_club,bar,point_of_interest,food,establishment",OPERATIONAL,milan,2026-02-06T15:12:01.090519
ChIJiXHtgX3FhkcRiTSVe1HEmcw,Mestè,restaurant,45.4412346,9.1903105,4.6,187.0,,"Via Corrado II il Salico, 12, Milano","restaurant,point_of_interest,food,establishment",OPERATIONAL,milan,2026-02-06T15:12:01.090528
ChIJuc6e_xLEhkcRENlGLJhnweA,da Samir,restaurant,45.441227,9.190463,4.4,260.0,1.0,"Via Corrado II il Salico, 14, Milano","bar,restaurant,point_of_interest,food,establishment",OPERATIONAL,milan,2026-02-06T15:12:01.090537
ChIJA9BXDOjFhkcRca2BYnBzobM,Ristorante Pizzeria Caffetteria del Quartiere del Morivione,restaurant,45.4412371,9.190821699999999,4.6,5.0,,"Morivione, Milan","restaurant,point_of_interest,food,establishment",OPERATIONAL,milan,2026-02-06T15:12:01.090546
ChIJnRhYm7DFhkcR-6qo0vRHSh8,EAT bar restaurant,restaurant,45.4428154,9.1893897,3.9,7.0,,"Via Giovanni Spadolini, 4, Milano","restaurant,point_of_interest,food,establishment",OPERATIONAL,milan,2026-02-06T15:12:01.090554
ChIJGYFQQ3PEhkcRf1y1vavURiU,Nour pizze,restaurant,45.4388285,9.1820063,4.7,171.0,1.0,"Via Francesco Brioschi, 91, Milano","meal_takeaway,meal_delivery,restaurant,point_of_interest,food,establishment",OPERATIONAL,milan,2026-02-06T15:12:01.090562
ChIJ79v2RkjFhkcRYkyjhoYsF_I,Ecooking Spadolini (Ecooking 4 Business),restaurant,45.4437986,9.1889853,3.0,2.0,,"Via Giovanni Spadolini, 5/7, Milano","restaurant,point_of_interest,food,establishment",OPERATIONAL,milan,2026-02-06T15:12:01.090579
ChIJYZstKBTEhkcRPvuIw4pDl4o,Bar Atlantic,restaurant,45.44296110000001,9.1975403,3.7,463.0,1.0,"Via Carlo de Angeli, 1, Milano","cafe,bar,store,restaurant,food,point_of_interest,establishment",OPERATIONAL,milan,2026-02-06T15:12:01.225240
ChIJzYn3UiXFhkcRnSquVyJAfio,Xier Vegetariano,restaurant,45.4403252,9.197776300000001,4.0,32.0,,"Via Rutilia, 16, Milano","restaurant,food,point_of_interest,establishment",CLOSED_TEMPORARILY,milan,2026-02-06T15:12:01.225285
ChIJp3qG0z_EhkcROCm5LhLN4XM,Cibus104,restaurant,45.44070199999999,9.198862499999999,4.2,696.0,2.0,"Via Giuseppe Ripamonti, 104, Milano","restaurant,food,point_of_interest,establishment",OPERATIONAL,milan,2026-02-06T15:12:01.225292
ChIJ26UWQT7EhkcRqG7sie0Qqfo,Ristorante del Barrio,restaurant,45.4413899,9.201438,4.0,1714.0,2.0,"Via Serio, 14, Milano","bar,restaurant,food,point_of_interest,establishment",CLOSED_TEMPORARILY,milan,2026-02-06T15:12:01.363848
ChIJWThk0T_EhkcR6vuiK6vc5Uk,La Piadina Felice,restaurant,45.440271,9.199697000000002,4.5,115.0,,"Via Giuseppe Ripamonti, 106, Milano","restaurant,food,point_of_interest,establishment",OPERATIONAL,milan,2026-02-06T15:12:01.363877
ChIJaVrp0j_EhkcRi8op6dacKNE,Meeting Caffè,restaurant,45.440321,9.199928,4.6,42.0,,"Via Giuseppe Ripamonti, 109, Milano","cafe,restaurant,food,store,point_of_interest,establishment",OPERATIONAL,milan,2026-02-06T15:12:01.363886
ChIJaUrx0j_EhkcRBVrlBnZYVBc,Piatti Caldi,restaurant,45.44042810000001,9.199874900000001,,,,Italy,"restaurant,food,point_of_interest,establishment",OPERATIONAL,milan,2026-02-06T15:12:01.363893
ChIJMzy8KOrFhkcRV3cVLW3sJWk,Hotel Apollo,restaurant,45.4404762,9.199505799999999,3.6,149.0,,"Via Giuseppe Ripamonti, 102, Milano","lodging,restaurant,food,point_of_interest,establishment",OPERATIONAL,milan,2026-02-06T15:12:01.363908
ChIJ-RAyem_FhkcRAWePyjkPoXc,Ryslaine Moulay,restaurant,45.4404091,9.1990941,5.0,1.0,,"Via Giuseppe Ripamonti, 104, Milano","restaurant,food,point_of_interest,establishment",OPERATIONAL,milan,2026-02-06T15:12:01.363914
ChIJFXWPHQDFhkcRfARxDSMTAmk,Pepenero pizza e brace,restaurant,45.4409132,9.199539399999999,4.2,14.0,,"Via Giuseppe Ripamonti, 94, Milano","restaurant,food,point_of_interest,establishment",OPERATIONAL,milan,2026-02-06T15:12:01.363921
ChIJzWah9hHFhkcRcl0gp7MHS5Q,Facce da Pizza,restaurant,45.44102729999999,9.1994197,4.1,727.0,2.0,"Via Giuseppe Ripamonti, 94, Milano","restaurant,food,point_of_interest,establishment",OPERATIONAL,milan,2026-02-06T15:12:01.363928
ChIJNauZJj7EhkcRwSS1p4ye71Y,Bar Devoti,restaurant,45.4412372,9.1998686,4.1,197.0,,"Via Giuseppe Ripamonti, 93, Milano","bar,restaurant,food,point_of_interest,establishment",OPERATIONAL,milan,2026-02-06T15:12:01.363935
ChIJS9oErzvEhkcRZ1hzpF3Vha8,Taverna Calabiana,restaurant,45.444029,9.208808899999998,4.1,694.0,3.0,"Via Arcivescovo Calabiana, 3, Milano","restaurant,food,point_of_interest,establishment",OPERATIONAL,milan,2026-02-06T15:12:01.535086
ChIJrUpoTQDFhkcRjUURgkvtmME,UFO Milano,restaurant,45.4403049,9.205391299999999,4.0,1.0,,"Via Orobia, 26, Milano","art_gallery,bar,restaurant,food,point_of_interest,establishment",OPERATIONAL,milan,2026-02-06T15:12:01.535133
ChIJXdZP1PzFhkcRBLAqC4lC6rM,Poke House - Symbiosis,restaurant,45.44250770000001,9.205499600000001,4.3,279.0,2.0,"Via Orobia, 16, Milano","meal_takeaway,restaurant,food,point_of_interest,establishment",OPERATIONAL,milan,2026-02-06T15:12:01.535151
ChIJ9didRHHFhkcRnRzg1PFKsdg,La Piadineria,restaurant,45.44245480000001,9.205102,3.5,106.0,1.0,"Symbiosi, Piazza Adriano Olivetti, 1, Milano","restaurant,food,point_of_interest,establishment",OPERATIONAL,milan,2026-02-06T15:12:01.535161
ChIJy9GuVTHFhkcRPYBjvYcMYsM,Gòodurie Soresina,restaurant,45.4426035,9.205131800000002,4.4,29.0,,"Via Orobia, 16, Milano","restaurant,food,point_of_interest,establishment",OPERATIONAL,milan,2026-02-06T15:12:01.535171
ChIJKXsdxGXFhkcRLZDzDF2KXdo,Pappare' Milano Symbiosis,restaurant,45.44285370000001,9.2054057,3.7,50.0,,"Via Orobia, 16, Milano","restaurant,cafe,food,store,point_of_interest,establishment",OPERATIONAL,milan,2026-02-06T15:12:01.535181
ChIJvza2Pz7EhkcRdYJejgZbav0,FISHBAR via serio 9,restaurant,45.4415837,9.2010803,4.1,180.0,,"Via Serio, 9, Milano","restaurant,bar,food,point_of_interest,establishment",OPERATIONAL,milan,2026-02-06T15:12:01.535190
ChIJDeqCUb3FhkcRhQAncA0yU4I,"Dal Serio - La cucina, il vino, il caffè",restaurant,45.4415706,9.201041499999999,3.0,2.0,,"Via Serio, 9, Milano","restaurant,food,point_of_interest,establishment",OPERATIONAL,milan,2026-02-06T15:12:01.535199
ChIJ93pOOzfEhkcRamJIuQ0n6aI,Alla Toscana...Pizzeria Milano Pizza al Trancio Ristorante Toscano Cucina Tipica,restaurant,45.4410775,9.2129856,4.2,720.0,1.0,"Piazza Geremia Bonomelli, 10, Milano","restaurant,food,point_of_interest,establishment",OPERATIONAL,milan,2026-02-06T15:12:01.703052
ChIJKRVa5zbEhkcRZ2pxxI7rPRc,Iume,restaurant,45.4405019,9.214440699999999,4.0,873.0,2.0,"Via Mincio, 2, Milano","restaurant,food,point_of_interest,establishment",OPERATIONAL,milan,2026-02-06T15:12:01.703080
ChIJ4ez1tjbEhkcRZ38E5BGg0Ak,Stella d'Asia,restaurant,45.4412214,9.2160161,4.3,1199.0,2.0,"Viale Brenta, 14, Milano","restaurant,food,point_of_interest,establishment",OPERATIONAL,milan,2026-02-06T15:12:01.703086
ChIJrXTSOjHEhkcRcYlzQtGVjLs,Malibù,restaurant,45.4426652,9.2150805,4.5,424.0,1.0,"Via Don Bosco, 31, Milano","restaurant,food,point_of_interest,establishment",OPERATIONAL,milan,2026-02-06T15:12:01.703090
ChIJg3AblTbEhkcR0PAGF5D7iXg,Il Molo,restaurant,45.4403457,9.215672399999999,3.9,787.0,1.0,"Via Mincio, 9, Milano","restaurant,food,point_of_interest,establishment",CLOSED_TEMPORARILY,milan,2026-02-06T15:12:01.703095
ChIJ511VuTbEhkcR-iDSyb0pITU,Bem Brasil,restaurant,45.4407515,9.2157567,4.5,718.0,2.0,"Via Bessarione, 5, Milano","restaurant,food,point_of_interest,establishment",OPERATIONAL,milan,2026-02-06T15:12:01.703099
ChIJdXda-jDEhkcRjvDdbDQfY6g,Baja Sardinja,restaurant,45.44359170000001,9.214369399999999,4.4,1752.0,2.0,"Via Don Bosco ang, Piazza San Luigi, Milano","restaurant,food,point_of_interest,establishment",OPERATIONAL,milan,2026-02-06T15:12:01.703103
ChIJBbu7mTDEhkcR-kbP5wKrYEI,Aiwen Ristor S.A.S. Di Zhao Aiwen Sas,restaurant,45.4431273,9.2127153,4.0,7.0,,"Via Benaco, 17, Milano","restaurant,food,point_of_interest,establishment",OPERATIONAL,milan,2026-02-06T15:12:01.703107
ChIJt7ogfTHEhkcRykZY7Vu4S18,Al Delicato,restaurant,45.4430674,9.217476099999999,4.2,334.0,2.0,"Corso Lodi, 84, Milano","restaurant,food,point_of_interest,establishment",OPERATIONAL,milan,2026-02-06T15:12:01.703111
ChIJW9hGxO_FhkcRz3BqBw1t2PU,Magnamm,restaurant,45.440434,9.2137638,4.5,1394.0,2.0,"Piazza Geremia Bonomelli, 5, Milano","restaurant,food,point_of_interest,establishment",OPERATIONAL,milan,2026-02-06T15:12:01.703115
ChIJXU4NPDfEhkcRUVQRNtnEBMo,BAR Il Capriccio,restaurant,45.4409682,9.212810399999999,4.0,71.0,2.0,"Viale Ortles, 85, Milano","bar,restaurant,food,point_of_interest,establishment",OPERATIONAL,milan,2026-02-06T15:12:01.703119
ChIJjRikJDfEhkcRbZawOplJEIc,Il Giglio Snc Di Chiofalo Angelo E Francesco,restaurant,45.44106679999999,9.213005299999999,5.0,1.0,,"Piazza Geremia Bonomelli, 10, Milano","restaurant,food,point_of_interest,establishment",OPERATIONAL,milan,2026-02-06T15:12:01.703123
ChIJqyQgKTfEhkcRS3AnffQ4Ppo,Aksu Turkish Kebap Tavola Calda,restaurant,45.44127899999999,9.213864999999998,4.3,155.0,1.0,"Piazza Geremia Bonomelli, 4, Milano","restaurant,food,point_of_interest,establishment",OPERATIONAL,milan,2026-02-06T15:12:01.703126
ChIJTcJZRADFhkcRbrpMy1FhvWs,Mezban Ristorante Indiano & Pizzeria,restaurant,45.44039939999999,9.215425,4.8,68.0,,"Via Mincio, 9, Milano","restaurant,food,point_of_interest,establishment",OPERATIONAL,milan,2026-02-06T15:12:01.703130
ChIJRYiZmjbEhkcRvVliZ03MyHA,Lion's Cafė,restaurant,45.4399605,9.2157513,4.4,66.0,1.0,"Via Bessarione, 12, Milano","cafe,bar,restaurant,food,point_of_interest,establishment",OPERATIONAL,milan,2026-02-06T15:12:01.703134
ChIJ-cBSYzPEhkcR3znItH-GM7g,Gnam Delizie Quotidiane,restaurant,45.44147299999999,9.220691999999998,4.2,336.0,2.0,"Corso Lodi, 108, Milano","cafe,store,restaurant,food,point_of_interest,establishment",OPERATIONAL,milan,2026-02-06T15:12:01.862340
ChIJcUNAeDPEhkcR8_KWMEPAHfs,Prince Indian restaurant,restaurant,45.4417708,9.2201284,3.5,185.0,1.0,"Corso Lodi, 104, Milano","restaurant,food,point_of_interest,establishment",OPERATIONAL,milan,2026-02-06T15:12:01.862375
ChIJ81HkcDPEhkcR-fLfIKzRuWg,Latinoamericano,restaurant,45.4419628,9.220626099999999,3.9,14.0,,"Corso Lodi, 105, Milano","restaurant,food,point_of_interest,establishment",OPERATIONAL,milan,2026-02-06T15:12:01.862386
ChIJvRyC0DPEhkcROd2N72aM068,Ristorante Timeout 2,restaurant,45.4428482,9.218743300000002,4.0,1242.0,2.0,"Corso Lodi, 93/2, Milano","restaurant,food,point_of_interest,establishment",OPERATIONAL,milan,2026-02-06T15:12:01.862401
ChIJL7V7cDPEhkcRkLwwklTgpYc,Restaurant and Pizzeria da Mimmo,restaurant,45.441841,9.220818,4.0,1144.0,2.0,"Corso Lodi, 107, Milano","restaurant,food,point_of_interest,establishment",OPERATIONAL,milan,2026-02-06T15:12:01.862410
ChIJ7_jj8LjFhkcRaOoPUFQKh1A,Frankie's,restaurant,45.4397411,9.2213742,4.8,25.0,,"Via Sile, 18, Milano","cafe,store,restaurant,food,point_of_interest,establishment",OPERATIONAL,milan,2026-02-06T15:12:01.862419
ChIJU9-4ezPEhkcRcxh-8Ekpqe0,Lifeng,restaurant,45.44165119999999,9.2204683,4.2,195.0,1.0,"Corso Lodi, 106, Milano","restaurant,food,point_of_interest,establishment",OPERATIONAL,milan,2026-02-06T15:12:01.862429
ChIJvUg8pzTEhkcR_CNpAikvnGM,Break Time,restaurant,45.441,9.2215761,4.0,156.0,1.0,"Corso Lodi, 112, Milano","restaurant,food,point_of_interest,establishment",OPERATIONAL,milan,2026-02-06T15:12:01.862438
ChIJUdBipzTEhkcRtuC_TvV13uU,Trattoria Giada,restaurant,45.4409964,9.2216681,4.3,543.0,1.0,"Corso Lodi, 112, Milano","restaurant,store,food,point_of_interest,establishment",OPERATIONAL,milan,2026-02-06T15:12:01.862446
ChIJL7CQccvFhkcRI-Ep8QnX5SA,Carmen,restaurant,45.4402369,9.224783000000002,4.1,714.0,2.0,"Piazzale Luigi Emanuele Corvetto, 3, Milano","restaurant,food,point_of_interest,establishment",OPERATIONAL,milan,2026-02-06T15:12:02.000086
ChIJMX6ARQzFhkcRV7jyP4DdAis,Egg - Pasticceria Salata,restaurant,45.44051530000001,9.226418599999999,4.5,2.0,,"Via Carlo Boncompagni, 16, Milano","restaurant,food,point_of_interest,establishment",OPERATIONAL,milan,2026-02-06T15:12:02.000150
ChIJsbMimczFhkcRsabkfuKGYJU,Specialità egiziane Casa Nostra,restaurant,45.4413,9.224518,4.3,214.0,,"Viale Lucania, 10, Milano","meal_delivery,meal_takeaway,restaurant,food,point_of_interest,establishment",OPERATIONAL,milan,2026-02-06T15:12:02.000164
ChIJbQ_OzDTEhkcRqlynL7fc0ZM,Aladino restaurante cibo orientale,restaurant,45.4395242,9.222265400000001,4.4,12.0,,"Via Sile, Milano","restaurant,food,point_of_interest,establishment",OPERATIONAL,milan,2026-02-06T15:12:02.000175
ChIJi69C403FhkcRk2iICC7PSSc,Forneria Metropolitana,restaurant,45.44109819999999,9.2321414,4.6,577.0,2.0,"Via Guglielmo Pecori Giraldi, 6, Milano","restaurant,cafe,food,store,point_of_interest,establishment",OPERATIONAL,milan,2026-02-06T15:12:02.109442
ChIJk8arWs7FhkcRHONdoPDSkJw,Asaditos de francisco,restaurant,45.4442127,9.231339,,,,"Via Sulmona, 23, Milano","restaurant,food,point_of_interest,establishment",OPERATIONAL,milan,2026-02-06T15:12:02.109487
ChIJF4EoQfrFhkcR3OL55j4NLcg,Pizzeria Parea,restaurant,45.4440064,9.262824799999999,3.5,108.0,1.0,"Via Privata Carlo Parea, 7, Milano","meal_takeaway,restaurant,food,point_of_interest,establishment",OPERATIONAL,milan,2026-02-06T15:12:03.042216
ChIJkR5EMPrFhkcRISCmyRRuCnc,Bar Trattoria da Luciano e Stefano,restaurant,45.4444813,9.263667900000002,4.4,191.0,1.0,"Via Elio Vittorini, 24, Milano","restaurant,bar,food,point_of_interest,establishment",OPERATIONAL,milan,2026-02-06T15:12:03.042250
ChIJvX8tNvrFhkcRv23AKcbyo28,Barakecy,restaurant,45.444465,9.263234700000002,,,,"Via Elio Vittorini, 18, Milano","restaurant,food,point_of_interest,establishment",OPERATIONAL,milan,2026-02-06T15:12:03.042256
ChIJq_afxdzphkcROYA3ijFmXEQ,Caffè Vergnano 1882 by MyChef Muggiano,restaurant,45.4451664,9.0735318,3.8,4072.0,2.0,"A50 Tangenziale Ovest di Milano, km 11+900, Milano","restaurant,cafe,supermarket,grocery_or_supermarket,store,bar,point_of_interest,food,establishment",OPERATIONAL,milan,2026-02-06T15:12:03.241964
ChIJ8xwce-XphkcRyWytvTyEDUU,Tamoil,restaurant,45.4456247,9.074665099999997,4.0,304.0,,"TANG. OVEST LATO MUGGIANO EST SNC, Milano","gas_station,pharmacy,store,bar,restaurant,point_of_interest,food,health,establishment",OPERATIONAL,milan,2026-02-06T15:12:03.241995
ChIJ7xgNjnvphkcRucWx2g_oVkM,Chef Express - Muggiano Est 37,restaurant,45.44573889999999,9.0750552,3.0,75.0,2.0,"A50, km 11.900, Milano","bar,cafe,convenience_store,meal_takeaway,store,restaurant,point_of_interest,food,establishment",OPERATIONAL,milan,2026-02-06T15:12:03.242007
ChIJNR0W5NzphkcRaQs19Th5wKQ,"Autogrill (A50, Muggiano Est)",restaurant,45.44582200000001,9.0749997,3.9,1145.0,2.0,"A50, km 11.900, Milano","restaurant,cafe,supermarket,grocery_or_supermarket,store,bar,point_of_interest,food,establishment",OPERATIONAL,milan,2026-02-06T15:12:03.242016
ChIJSVr-eUfChkcRJHZEZ2v4lHM,iH Hotels Milano Lorenteggio,restaurant,45.4442627,9.1161217,4.0,1926.0,,"Via Lorenteggio, 278, Milano","lodging,restaurant,point_of_interest,food,establishment",OPERATIONAL,milan,2026-02-06T15:12:03.377730
ChIJnzK6JkfChkcR8GDCZDkF3H8,Grill Antica Macelleria,restaurant,45.4431992,9.113636000000001,4.2,576.0,2.0,"Piazza Aristide Carabelli, 18, Corsico","restaurant,bar,point_of_interest,food,establishment",OPERATIONAL,milan,2026-02-06T15:12:03.377748
ChIJRcgQmUfChkcRbM-GWRlGa6E,iH Gusto Restaurant Milano,restaurant,45.4442225,9.1161815,3.7,118.0,,"Via Lorenteggio, 278, Milano","restaurant,point_of_interest,food,establishment",OPERATIONAL,milan,2026-02-06T15:12:03.377753
ChIJjbl8ljrDhkcRzJboafqLpfM,KFC,restaurant,45.44317359999999,9.116121500000002,3.6,151.0,1.0,"Via Lorenteggio, 271, Milano","meal_takeaway,restaurant,point_of_interest,food,establishment",OPERATIONAL,milan,2026-02-06T15:12:03.377758
ChIJy-ULIQHDhkcRwD3ouwKgsL8,Piadineria da Tasso,restaurant,45.4453754,9.114499300000002,4.8,23.0,,"Via Giovanni Bensi, Milano","restaurant,point_of_interest,food,establishment",OPERATIONAL,milan,2026-02-06T15:12:03.377762
ChIJBYyDAp7DhkcRF1hKcejPD50,Mensa Banca Intesa SanPaolo,restaurant,45.4457525,9.1181559,5.0,2.0,,"Via Giovanni Bensi, 11, Milano","restaurant,point_of_interest,food,establishment",OPERATIONAL,milan,2026-02-06T15:12:03.377766
ChIJTUBvHUfChkcRXySCbRAsZHg,Ristorante Don Girò,restaurant,45.4426842,9.114817600000002,3.7,2783.0,2.0,"Via Giuseppe di Vittorio, 10, Corsico","meal_takeaway,restaurant,point_of_interest,food,establishment",OPERATIONAL,milan,2026-02-06T15:12:03.377769
ChIJxxlgKEfChkcRKpVlhZWXi2w,Nuovo Bar Ristorante,restaurant,45.4431304,9.113864999999999,4.6,134.0,1.0,"Piazza Aristide Carabelli, 25, Corsico","bar,restaurant,point_of_interest,food,establishment",OPERATIONAL,milan,2026-02-06T15:12:03.377774
ChIJPY5iYzLDhkcR8naKip2u5SI,L’angolo del caffè,restaurant,45.4429046,9.113810499999998,5.0,10.0,,"Piazza Aristide Carabelli, 11, Corsico","bar,restaurant,point_of_interest,food,establishment",OPERATIONAL,milan,2026-02-06T15:12:03.377777
